,City,Lat,Lng,Max Temp,Humidity,Cloudiness,Wind Speed,Country,Date
0,port elizabeth,-33.918,25.5701,289.15,82,20,6.17,ZA,1619556842
1,acapulco,16.8634,-99.8901,303.15,66,40,4.63,MX,1619556730
2,punta arenas,-53.15,-70.9167,281.15,87,90,4.12,CL,1619557008
3,saldanha,-33.0117,17.9442,289.15,88,95,2.06,ZA,1619557009
4,evinayong,1.4368,10.5512,294.44,99,100,1.06,GQ,1619557009
5,albany,42.6001,-73.9662,292.59,20,93,0.92,US,1619556900
6,chokurdakh,70.6333,147.9167,268.92,88,100,0.89,RU,1619557009
7,paramonga,-10.6667,-77.8333,294.02,80,94,5.6,PE,1619557010
8,new norfolk,-42.7826,147.0587,280.93,90,88,1.46,AU,1619557010
9,falmouth,50.1544,-5.0711,282.15,81,40,3.6,GB,1619556900
10,east london,-33.0153,27.9116,291.94,74,90,5.06,ZA,1619556761
11,san quintin,30.4833,-115.95,287.35,75,99,5.02,MX,1619557010
12,souillac,-20.5167,57.5167,298.15,94,75,5.14,MU,1619557010
13,alofi,-19.0595,-169.9187,300.9,79,100,10.62,NU,1619556901
14,hobyo,5.3505,48.5268,302.06,70,4,5.44,SO,1619557011
15,kodiak,57.79,-152.4072,279.15,87,90,9.77,US,1619556754
16,bahia blanca,-38.7196,-62.2724,294.22,55,0,4.89,AR,1619556903
17,rikitea,-23.1203,-134.9692,298.45,70,1,4.34,PF,1619557417
18,ushuaia,-54.8,-68.3,279.15,93,75,0.29,AR,1619557417
19,les cayes,18.2,-73.75,301.09,63,48,3.25,HT,1619557417
20,amqui,48.4638,-67.4313,282.15,66,75,2.57,CA,1619557417
21,jamestown,42.097,-79.2353,296.15,43,1,4.12,US,1619557409
22,mataura,-46.1927,168.8643,280.37,82,100,3.13,NZ,1619557418
23,kollam,8.8833,76.6,301.15,83,20,1.86,IN,1619557418
24,katsuura,35.1333,140.3,286.15,82,75,1.54,JP,1619557418
25,puerto escondido,15.85,-97.0667,304.15,70,1,3.09,MX,1619557419
26,naze,28.3667,129.4833,290.97,60,97,2.4,JP,1619557419
27,cape town,-33.9258,18.4232,289.26,88,0,3.6,ZA,1619557326
28,parsabad,39.6482,47.9174,287.15,82,40,8.23,IR,1619557419
29,geraldton,-28.7667,114.6,286.15,82,19,1.54,AU,1619557419
30,avarua,-21.2078,-159.775,300.15,83,75,4.63,CK,1619557420
31,adrar,20.5022,-10.0711,304.31,18,64,3.15,MR,1619557337
32,ribeira grande,38.5167,-28.7,289.15,72,75,6.17,PT,1619557420
33,codrington,-38.2667,141.9667,281.53,91,21,1.88,AU,1619557420
34,atuona,-9.8,-139.0333,299.59,71,96,6.38,PF,1619557420
35,krasnoselkup,65.7,82.4667,273.13,97,100,4.11,RU,1619557421
36,iqaluit,63.7506,-68.5145,269.15,63,20,1.54,CA,1619557152
37,seoul,37.5683,126.9778,284.15,87,40,2.06,KR,1619556705
38,santa cruz cabralia,-16.2781,-39.0247,299.15,65,40,4.63,BR,1619557421
39,thompson,55.7435,-97.8558,269.15,54,75,7.72,CA,1619557421
40,hermanus,-34.4187,19.2345,287.04,86,100,2.76,ZA,1619557422
41,haines junction,60.7522,-137.5108,275.15,23,100,4.12,CA,1619557422
42,gushikawa,26.3544,127.8686,293.15,73,40,2.57,JP,1619557422
43,mehran,33.1222,46.1646,293.15,34,75,3.09,IR,1619557422
44,trapani,37.8333,12.6667,289.15,77,0,3.09,IT,1619557423
45,sorland,67.667,12.6934,273.15,86,40,1.03,NO,1619557423
46,port alfred,-33.5906,26.891,291.46,83,56,5.37,ZA,1619557423
47,marsh harbour,26.5412,-77.0636,296.53,63,58,8.42,BS,1619557423
48,staryy oskol,51.2967,37.8417,276.33,68,100,3.02,RU,1619557424
49,beihai,21.4833,109.1,294.78,89,100,4.7,CN,1619557217
50,butaritari,3.0707,172.7902,301.06,77,66,5.28,KI,1619557424
51,longyan,25.1072,117.0225,292.77,99,100,0.69,CN,1619557424
52,cidreira,-30.1811,-50.2056,290.56,57,0,4.48,BR,1619557424
53,hualmay,-11.0964,-77.6139,294.74,75,82,5.79,PE,1619557425
54,pisco,-13.7,-76.2167,294.15,78,0,8.75,PE,1619557425
55,nabisar,25.0685,69.6419,300.73,53,0,4.94,PK,1619557425
56,kenora,49.8167,-94.4337,286.15,41,75,2.06,CA,1619557425
57,spalding,33.2668,-84.2833,300.93,44,40,3.9,US,1619557426
58,boo,59.3333,18.2833,275.93,64,90,1.94,SE,1619557426
59,portland,45.5234,-122.6762,291.48,51,75,2.57,US,1619557426
60,tuatapere,-46.1333,167.6833,280.37,82,98,3.13,NZ,1619557426
61,torbay,47.6666,-52.7314,281.15,93,90,5.14,CA,1619557399
62,bredasdorp,-34.5322,20.0403,287.15,82,100,1.54,ZA,1619557427
63,khatanga,71.9667,102.5,266.35,81,100,3.16,RU,1619557427
64,havoysund,70.9963,24.6622,272.15,86,75,4.12,NO,1619557427
65,santa maria,-29.6842,-53.8069,294.15,46,0,1.54,BR,1619557254
66,butte,39.6499,-121.5677,297.15,27,1,6.17,US,1619557428
67,nadym,65.5333,72.5167,273.25,95,95,2.74,RU,1619557268
68,busselton,-33.65,115.3333,285.93,97,30,1.49,AU,1619557428
69,marihatag,8.7936,126.2969,297.35,83,59,2.29,PH,1619557428
70,springdale,36.1867,-94.1288,296.48,83,75,7.72,US,1619557290
71,tiquicheo,18.8833,-100.7333,314.03,13,47,2.76,MX,1619557429
72,marawi,7.9986,124.2928,296.48,86,41,2.68,PH,1619557429
73,yulara,-25.2406,130.9889,287.15,44,0,4.12,AU,1619557429
74,mwinilunga,-11.7358,24.4293,289.44,90,48,1.34,ZM,1619557429
75,buala,-8.145,159.5921,298.85,88,100,1.7,SB,1619557430
76,labuan,5.2767,115.2417,299.15,94,40,1.03,MY,1619557430
77,tiksi,71.6872,128.8694,256.33,96,62,3.41,RU,1619557430
78,asfi,32.2994,-9.2372,290.82,82,17,2.84,MA,1619557430
79,kapaa,22.0752,-159.319,298.71,83,1,2.57,US,1619557169
80,rantepao,-2.9701,119.8978,292.39,96,65,0.85,ID,1619557431
81,fairbanks,64.8378,-147.7164,280.37,24,75,5.14,US,1619557431
82,slobodskoy,58.7322,50.1772,276.99,94,100,1.66,RU,1619557431
83,muncar,-8.4333,114.3333,298.02,78,90,1.56,ID,1619557431
84,salalah,17.0151,54.0924,301.15,78,20,2.06,OM,1619557432
85,hasaki,35.7333,140.8333,283.15,87,75,1.54,JP,1619557432
86,vanimo,-2.6741,141.3028,298.48,87,36,1.34,PG,1619557275
87,vaini,-21.2,-175.2,296.15,88,75,7.72,TO,1619557432
88,saint-philippe,-21.3585,55.7679,297.15,88,0,1.54,RE,1619557432
89,floro,61.5996,5.0328,279.15,61,0,4.12,NO,1619557433
90,mandello del lario,45.9192,9.3193,284.82,93,100,0.36,IT,1619557433
91,bengkulu,-3.8004,102.2655,297.11,88,36,1.74,ID,1619557433
92,dandong,40.1292,124.3947,279.94,94,63,1.27,CN,1619557433
93,bambous virieux,-20.3428,57.7575,298.15,94,75,5.14,MU,1619557434
94,singaraja,-8.112,115.0882,298.17,78,21,2.32,ID,1619557434
95,longyearbyen,78.2186,15.6401,265.15,62,90,1.54,SJ,1619557434
96,kudahuvadhoo,2.6708,72.8944,301.06,74,82,2.24,MV,1619557434
97,arraial do cabo,-22.9661,-42.0278,295.15,88,75,2.57,BR,1619557435
98,inta,66.0317,60.1659,271.85,96,100,2.82,RU,1619557435
99,clarence town,-32.5833,151.7833,289.82,100,90,2.57,AU,1619557435
100,hilo,19.7297,-155.09,302.15,54,1,4.12,US,1619557436
101,cayenne,4.9333,-52.3333,300.15,83,75,2.57,GF,1619557207
102,gat,31.61,34.7642,290.93,74,0,1.61,IL,1619557436
103,ocos,14.5094,-92.1933,305.15,70,40,5.14,GT,1619557436
104,kalawit,8.0667,122.5167,298.79,84,95,1.95,PH,1619557436
105,carnarvon,-24.8667,113.6333,289.15,82,0,3.09,AU,1619557437
106,provideniya,64.3833,-173.3,272.15,93,90,1.0,RU,1619557437
107,severo-kurilsk,50.6789,156.125,274.31,95,100,7.86,RU,1619557437
108,ahuimanu,21.4447,-157.8378,300.15,69,40,2.06,US,1619557437
109,grindavik,63.8424,-22.4338,280.15,87,75,2.57,IS,1619557438
110,ixtapa,20.7,-105.2,301.15,65,40,5.14,MX,1619557212
111,taoudenni,22.6783,-3.9836,309.18,11,27,2.8,ML,1619557438
112,dekar,-21.5333,21.9333,294.33,32,37,2.85,BW,1619557438
113,jumla,29.2747,82.1838,282.31,61,98,1.83,NP,1619557384
114,georgetown,5.4112,100.3354,299.15,94,40,2.06,MY,1619557285
115,mar del plata,-38.0023,-57.5575,293.15,56,0,4.63,AR,1619557151
116,asau,46.4333,26.4,277.04,67,100,1.1,RO,1619557439
117,rawson,-43.3002,-65.1023,294.65,33,100,3.46,AR,1619557439
118,san miguel,13.4833,-88.1833,309.15,32,0,3.09,SV,1619557439
119,lompoc,34.6391,-120.4579,290.15,55,1,9.26,US,1619557428
120,odienne,9.51,-7.5692,297.77,76,100,2.2,CI,1619557439
121,san rafael,-34.6177,-68.3301,296.05,38,0,5.86,AR,1619557440
122,barrow,71.2906,-156.7887,266.15,79,90,3.6,US,1619557440
123,clyde river,70.4692,-68.5914,272.15,69,40,5.14,CA,1619557440
124,burns lake,54.2331,-125.7533,279.15,75,100,2.57,CA,1619557440
125,mandalgovi,45.7625,106.2708,273.05,52,4,6.31,MN,1619557441
126,tasiilaq,65.6145,-37.6368,276.15,75,75,7.2,GL,1619557441
127,hobart,-42.8794,147.3294,282.15,87,0,4.12,AU,1619557349
128,lebu,-37.6167,-73.65,288.97,84,58,1.66,CL,1619557441
129,vao,-22.6667,167.4833,295.99,53,72,8.34,NC,1619557442
130,sao filipe,14.8961,-24.4956,295.76,76,13,7.5,CV,1619557442
131,makakilo city,21.3469,-158.0858,300.15,61,75,4.63,US,1619557442
132,buritizeiro,-17.3511,-44.9622,295.61,78,97,1.57,BR,1619557442
133,whitehorse,60.7161,-135.0538,273.15,34,75,2.06,CA,1619557443
134,yellowknife,62.456,-114.3525,264.15,45,20,7.2,CA,1619557216
135,van buren,35.4368,-94.3483,299.26,65,40,2.57,US,1619557443
136,sao felix do xingu,-6.6447,-51.995,297.3,94,100,0.4,BR,1619557443
137,pemberton,50.3164,-122.8027,284.15,58,90,1.54,CA,1619557443
138,weligama,5.9667,80.4167,299.25,85,73,2.3,LK,1619557444
139,broome,42.2506,-75.833,296.48,37,20,5.14,US,1619557444
140,ostrovnoy,68.0531,39.5131,269.01,82,100,2.93,RU,1619557444
141,marsa matruh,31.3525,27.2453,290.15,72,0,2.57,EG,1619557444
142,hithadhoo,-0.6,73.0833,301.12,65,99,0.67,MV,1619557445
143,norman wells,65.282,-126.8329,268.15,33,75,3.6,CA,1619557445
144,dunedin,-45.8742,170.5036,282.59,48,42,0.89,NZ,1619557172
145,yinchuan,38.4681,106.2731,281.99,20,15,5.01,CN,1619557445
146,upernavik,72.7868,-56.1549,273.75,89,87,8.37,GL,1619557445
147,flinders,-34.5833,150.8552,286.48,87,100,0.45,AU,1619557446
148,cabo san lucas,22.8909,-109.9124,298.15,49,1,11.83,MX,1619557388
149,fort nelson,58.8053,-122.7002,263.15,67,90,0.89,CA,1619557446
150,mount isa,-20.7333,139.5,287.15,51,0,1.54,AU,1619557446
151,luderitz,-26.6481,15.1594,288.45,87,4,3.28,NA,1619557447
152,talnakh,69.4865,88.3972,270.34,90,97,4.88,RU,1619557447
153,umm kaddadah,13.6017,26.6876,301.71,11,14,5.58,SD,1619557447
154,golfito,8.639,-83.166,301.27,74,73,1.97,CR,1619557447
155,henties bay,-22.116,14.2845,289.26,89,0,1.34,NA,1619557447
156,otavi,-19.65,17.3333,291.91,34,13,1.97,NA,1619557448
157,comodoro rivadavia,-45.8667,-67.5,295.15,37,0,5.66,AR,1619557448
158,tuktoyaktuk,69.4541,-133.0374,264.15,62,20,3.09,CA,1619557448
159,yuci,37.6803,112.7319,276.15,56,21,1.0,CN,1619557449
160,kloulklubed,7.0419,134.2556,297.15,94,75,0.64,PW,1619557449
161,zorritos,-3.6805,-80.6782,299.15,78,75,2.57,PE,1619557449
162,tupancireta,-29.0806,-53.8358,287.42,59,0,3.49,BR,1619557449
163,caravelas,-17.7125,-39.2481,297.28,75,22,2.94,BR,1619557450
164,kazanskaya,45.4106,40.4361,283.71,67,100,2.69,RU,1619557450
165,mehamn,71.0357,27.8492,272.15,69,75,7.72,NO,1619557389
166,castro,-24.7911,-50.0119,289.28,63,0,0.42,BR,1619557450
167,mont-joli,48.5839,-68.1921,282.15,66,75,2.57,CA,1619557450
168,port hardy,50.6996,-127.4199,283.15,87,90,3.6,CA,1619557451
169,kaitangata,-46.2817,169.8464,280.93,62,96,3.58,NZ,1619557218
170,victoria,22.2855,114.1577,297.04,91,96,4.72,HK,1619557274
171,nabire,-3.3667,135.4833,297.89,89,68,0.71,ID,1619557410
172,ningyang,35.7642,116.7914,285.08,35,100,3.07,CN,1619557451
173,mombetsu,44.3525,143.3525,275.37,79,100,1.34,JP,1619557451
174,chapais,49.7834,-74.8492,285.15,43,1,2.06,CA,1619557451
175,trairi,-3.2778,-39.2689,299.43,76,24,4.71,BR,1619557452
176,bluff,-46.6,168.3333,280.37,82,100,3.13,NZ,1619557225
177,shahgarh,24.3167,79.1333,302.74,6,0,3.07,IN,1619557452
178,hvide sande,56.0045,8.1294,278.71,64,100,4.76,DK,1619557452
179,galesong,-5.3166,119.3661,297.15,94,20,2.18,ID,1619557452
180,inhambane,-23.865,35.3833,296.46,86,0,4.76,MZ,1619557443
181,pingliang,35.5392,106.6861,279.6,37,96,2.26,CN,1619557453
182,cobija,-11.0267,-68.7692,299.86,68,95,1.15,BO,1619557453
183,sioux lookout,50.1001,-91.917,285.15,47,40,2.06,CA,1619557453
184,riyadh,24.6877,46.7219,304.15,22,75,3.6,SA,1619557454
185,sitka,57.0531,-135.33,282.15,61,90,6.17,US,1619557454
186,bethel,41.3712,-73.414,293.71,26,1,4.63,US,1619557454
187,oktyabrskoye,43.0645,44.7417,283.15,76,72,5.0,RU,1619557454
188,kavaratti,10.5669,72.642,302.01,76,0,3.54,IN,1619557455
189,blairmore,49.6,-114.4353,287.15,28,1,11.32,CA,1619557455
190,jalu,29.0331,21.5482,298.62,16,0,4.64,LY,1619557455
191,yenotayevka,47.2456,47.0281,282.56,57,24,2.26,RU,1619557455
192,nueve de julio,-35.4444,-60.8831,290.82,59,28,2.04,AR,1619557456
193,dikson,73.5069,80.5464,273.08,97,100,7.58,RU,1619557456
194,antalaha,-14.9003,50.2788,296.26,90,50,2.39,MG,1619557456
195,sovetsk,55.0839,21.8785,274.39,92,61,2.3,RU,1619557456
196,chunskiy,56.0815,99.6342,268.85,97,27,0.6,RU,1619557457
197,flin flon,54.7682,-101.865,270.15,33,90,6.17,CA,1619557384
198,saint-felicien,48.6501,-72.4491,288.15,31,20,3.6,CA,1619557368
199,puerto ayora,-0.7393,-90.3518,303.15,66,20,4.12,EC,1619557457
200,harper,4.375,-7.7169,300.48,81,72,3.69,LR,1619557457
201,didsbury,53.417,-2.2315,280.93,93,75,5.66,GB,1619557457
202,kisanga,-7.4362,37.7034,295.82,97,100,0.85,TZ,1619557458
203,worland,44.0169,-107.9554,285.37,54,20,1.42,US,1619557458
204,marysville,48.0518,-122.1771,289.26,58,40,3.6,US,1619557200
205,fortuna,40.5982,-124.1573,290.37,72,1,6.69,US,1619557458
206,meulaboh,4.1363,96.1285,298.43,89,97,1.39,ID,1619557459
207,walvis bay,-22.9575,14.5053,289.26,82,0,2.57,NA,1619557459
208,qaanaaq,77.484,-69.3632,276.74,93,100,2.34,GL,1619557459
209,chokwe,-24.5333,32.9833,296.2,52,0,2.33,MZ,1619557459
210,warri,5.5167,5.75,298.83,90,83,2.1,NG,1619557460
211,saint-augustin,51.226,-58.6502,276.2,98,100,5.17,CA,1619557460
212,lata,40.1629,-8.3327,288.15,87,61,0.89,PT,1619557278
213,pangnirtung,66.1451,-65.7125,267.15,79,20,4.12,CA,1619557460
214,dickinson,29.4608,-95.0513,299.82,78,90,4.63,US,1619557460
215,poum,-20.2333,164.0167,296.74,58,0,9.2,NC,1619557461
216,manzhouli,49.6,117.4333,272.27,58,100,9.97,CN,1619557461
217,san jose,37.3394,-121.895,295.37,34,1,5.66,US,1619556986
218,nikolskoye,59.7035,30.7861,275.37,75,0,1.0,RU,1619557461
219,chuy,-33.6971,-53.4616,287.72,69,0,3.31,UY,1619557462
220,mackay,-21.15,149.2,292.15,94,40,4.63,AU,1619557462
221,mabaruma,8.2,-59.7833,300.53,66,88,2.8,GY,1619557462
222,port lincoln,-34.7333,135.8667,289.34,65,100,1.66,AU,1619557462
223,mahebourg,-20.4081,57.7,298.15,94,75,5.14,MU,1619557463
224,cap malheureux,-19.9842,57.6142,297.59,86,100,3.13,MU,1619557463
225,tevriz,57.509,72.4042,279.36,48,100,1.6,RU,1619557463
226,mbumi,-7.9058,39.2105,296.48,97,69,0.33,TZ,1619557463
227,qasigiannguit,68.8193,-51.1922,276.15,65,90,3.22,GL,1619557464
228,kahului,20.8947,-156.47,300.15,65,40,4.63,US,1619557401
229,coihaique,-45.5752,-72.0662,286.15,54,75,5.14,CL,1619557464
230,carman,49.4992,-98.0016,291.15,27,32,1.54,CA,1619557464
231,san-pedro,4.7485,-6.6363,300.56,83,61,3.61,CI,1619557465
232,chimore,-16.9833,-65.1333,298.38,64,41,0.79,BO,1619557465
233,el cobre,20.0489,-75.9469,302.15,65,40,5.14,CU,1619557465
234,kasongo-lunda,-6.4667,16.8167,295.26,95,100,0.32,CD,1619557465
235,townsville,-19.25,146.8,293.15,83,20,3.6,AU,1619557466
236,piacabucu,-10.4056,-36.4344,298.9,80,1,3.02,BR,1619557466
237,likhoslavl,57.1275,35.464,272.77,96,72,2.29,RU,1619557466
238,melfort,52.8667,-104.6177,276.15,38,100,6.17,CA,1619557466
239,baruun-urt,46.6806,113.2792,271.3,47,0,6.16,MN,1619557467
240,jabinyanah,35.035,10.9081,291.15,82,20,5.14,TN,1619557467
241,ponta do sol,32.6667,-17.1,288.71,81,100,0.89,PT,1619557467
242,bam,29.106,58.357,297.14,22,2,1.6,IR,1619557467
243,mayo,38.8876,-76.5119,301.48,41,1,5.14,US,1619557453
244,phalaborwa,-23.943,31.1411,295.15,56,0,1.03,ZA,1619557468
245,lyaskelya,61.7667,31.0167,274.87,69,100,1.68,RU,1619557468
246,santa fe,-31.6333,-60.7,292.58,57,0,2.28,AR,1619557468
247,tongliao,43.6125,122.2653,280.75,33,22,5.97,CN,1619557469
248,san policarpo,12.1791,125.5072,298.47,76,98,3.27,PH,1619557469
249,margate,51.3813,1.3862,282.59,72,7,0.89,GB,1619557248
250,pevek,69.7008,170.3133,263.21,93,96,2.86,RU,1619557469
251,waitati,-45.75,170.5667,282.59,49,26,0.89,NZ,1619557469
252,beringovskiy,63.05,179.3167,273.53,98,100,2.46,RU,1619557470
253,petropavlovsk-kamchatskiy,53.0452,158.6483,275.15,100,75,3.0,RU,1619557470
254,ossora,59.2353,163.0719,271.48,71,100,2.17,RU,1619557470
255,biryukove,47.9563,39.7384,282.15,66,20,2.0,UA,1619557470
256,brae,60.3964,-1.353,278.15,75,40,7.72,GB,1619557471
257,erzin,36.9559,36.2,291.48,88,48,0.39,TR,1619557471
258,padang,-0.9492,100.3543,297.64,91,100,2.38,ID,1619557471
259,kavieng,-2.5744,150.7967,301.27,73,50,2.81,PG,1619557471
260,cheyenne,41.14,-104.8203,279.26,93,90,4.12,US,1619557209
261,buraydah,26.326,43.975,303.15,30,40,1.54,SA,1619557472
262,benguela,-12.5763,13.4055,299.18,79,7,1.14,AO,1619557472
263,beitbridge,-22.2167,30.0,296.53,26,0,2.74,ZW,1619557472
264,tura,25.5198,90.2201,297.98,50,91,1.79,IN,1619557472
265,bathsheba,13.2167,-59.5167,300.15,61,20,6.17,BB,1619557473
266,muros,42.7762,-9.0603,287.04,77,15,6.65,ES,1619557473
267,faanui,-16.4833,-151.75,300.65,72,21,4.36,PF,1619557473
268,pontianak,-0.0333,109.3333,298.15,94,75,3.09,ID,1619557473
269,esperance,-33.8667,121.9,284.15,100,75,2.57,AU,1619557474
270,kurilsk,45.2333,147.8833,272.9,67,22,2.79,RU,1619557474
271,palu,-0.8917,119.8707,296.94,93,24,1.35,ID,1619557474
272,inirida,3.8653,-67.9239,296.38,98,100,0.71,CO,1619557214
273,chishan,22.6392,120.3565,296.48,88,75,1.03,TW,1619557474
274,severnyy,50.677,36.5532,277.15,70,0,2.0,RU,1619557475
275,beckley,37.7782,-81.1882,305.15,24,1,5.14,US,1619557475
276,vila velha,-20.3297,-40.2925,299.15,78,20,4.12,BR,1619557475
277,ilulissat,69.2167,-51.1,276.15,65,90,0.55,GL,1619557475
278,hollins,37.3413,-79.9431,302.59,34,20,5.14,US,1619557476
279,puerto madero,14.7208,-92.4215,304.15,70,40,5.14,MX,1619557476
280,cherskiy,68.75,161.3,266.19,89,41,3.91,RU,1619557476
281,komsomolskiy,40.4272,71.7189,294.15,24,0,3.09,UZ,1619557477
282,lakatoro,-16.0999,167.4164,298.5,72,74,3.64,VU,1619557477
283,ziarat,30.3823,67.7282,289.08,24,81,0.74,PK,1619557394
284,saint george,37.1041,-113.5841,290.37,47,75,2.57,US,1619557477
285,tatarusi,47.35,26.6,276.15,87,0,1.54,RO,1619557477
286,bambanglipuro,-7.95,110.2833,299.15,78,100,3.78,ID,1619557478
287,normandin,48.8333,-72.5321,288.15,36,6,4.63,CA,1619557478
288,olinda,-8.0089,-34.8553,300.15,69,20,3.6,BR,1619557478
289,nevinnomyssk,44.6267,41.9453,281.15,87,40,4.0,RU,1619557214
290,dingle,10.9995,122.6711,298.29,83,97,2.79,PH,1619557478
291,port hedland,-20.3167,118.5667,292.15,37,2,3.6,AU,1619557479
292,palmer,42.1584,-72.3287,294.15,23,75,2.06,US,1619557479
293,vardo,70.3705,31.1107,271.15,93,90,4.12,NO,1619557479
294,broken hill,-31.95,141.4333,284.15,62,57,2.26,AU,1619557480
295,standerton,-26.9337,29.2415,285.37,67,35,1.46,ZA,1619557480
296,kaminskiy,57.1516,41.4732,277.25,95,100,1.93,RU,1619557480
297,kishtwar,33.3167,75.7667,285.41,60,4,2.67,IN,1619557480
298,kirakira,-10.4544,161.9205,300.17,78,88,2.53,SB,1619557481
299,chegutu,-18.1302,30.1407,291.48,68,91,1.94,ZW,1619557481
300,luanda,-8.8368,13.2343,301.15,83,40,3.09,AO,1619557217
301,sao gabriel da cachoeira,-0.1303,-67.0892,299.66,89,63,0.31,BR,1619557481
302,gorom-gorom,14.4439,-0.2361,308.04,20,13,2.88,BF,1619557481
303,gazanjyk,39.2446,55.5154,293.29,58,98,5.36,TM,1619557482
304,quesnel,52.9999,-122.5029,286.15,26,20,2.06,CA,1619557482
305,narsaq,60.9167,-46.05,278.28,67,3,0.95,GL,1619557482
306,lipari,38.4674,14.954,289.26,81,4,0.45,IT,1619557482
307,baykit,61.67,96.37,268.25,96,21,1.32,RU,1619557483
308,matara,5.9485,80.5353,298.94,88,68,2.51,LK,1619557483
309,cairns,-16.9167,145.7667,296.15,78,75,4.63,AU,1619557483
310,asuncion,-25.3007,-57.6359,295.93,49,0,3.09,PY,1619557484
311,roma,43.2128,-75.4557,291.48,32,90,1.73,US,1619557484
312,nouadhibou,20.931,-17.0347,293.15,77,0,5.14,MR,1619557484
313,enshi,30.3,109.4833,289.21,93,100,0.13,CN,1619557484
314,rocha,-34.4833,-54.3333,286.21,80,0,2.63,UY,1619557484
315,miguel hidalgo,19.4225,-99.2028,305.15,20,40,4.12,MX,1619557479
316,klaksvik,62.2266,-6.589,278.15,87,75,3.09,FO,1619557485
317,vila do maio,15.1333,-23.2167,295.15,73,40,6.17,CV,1619557485
318,turan,16.0678,108.2208,298.15,88,20,2.44,VN,1619557485
319,bose,45.4612,8.0137,285.93,90,100,0.71,IT,1619557486
320,bensonville,6.4461,-10.6125,300.15,89,40,1.65,LR,1619557486
321,vila franca do campo,37.7167,-25.4333,288.15,82,75,4.63,PT,1619557486
322,calama,-22.4667,-68.9333,293.15,14,0,8.75,CL,1619557309
323,miri,4.4148,114.0089,297.15,94,40,1.54,MY,1619557486
324,vestmannaeyjar,63.4427,-20.2734,280.43,78,58,8.49,IS,1619557390
325,myitkyina,25.3833,97.4,298.29,33,88,0.23,MM,1619557487
326,adelaide,-34.9333,138.6,285.37,93,0,1.02,AU,1619557201
327,yarada,17.65,83.2667,301.15,78,40,1.03,IN,1619557487
328,limbe,4.0242,9.2149,302.15,84,75,2.06,CM,1619557308
329,abancay,-13.6339,-72.8814,288.15,55,40,2.57,PE,1619557487
330,shingu,33.7333,135.9833,289.0,85,100,2.09,JP,1619557488
331,lorengau,-2.0226,147.2712,300.6,74,96,0.74,PG,1619557275
332,leh,34.1667,77.5833,274.56,34,58,1.37,IN,1619557488
333,san patricio,28.017,-97.5169,302.15,79,90,8.75,US,1619557488
334,teguldet,57.3064,88.1667,272.97,97,67,1.37,RU,1619557488
335,plettenberg bay,-34.0527,23.3716,289.1,87,99,2.16,ZA,1619557489
336,altay,47.8667,88.1167,278.92,47,96,3.1,CN,1619557490
337,saint-francois,46.4154,3.9054,285.93,66,0,1.03,FR,1619557490
338,dajal,29.5577,70.3762,307.0,9,40,3.97,PK,1619557490
339,ormara,25.2088,64.6357,300.62,69,20,0.39,PK,1619557491
340,okha,53.5739,142.9478,271.32,76,52,6.36,RU,1619557491
341,gourcy,13.2167,-2.35,306.16,30,94,3.38,BF,1619557491
342,ketchikan,55.3422,-131.6461,281.15,87,90,6.69,US,1619557363
343,srednekolymsk,67.45,153.6833,268.18,80,65,1.7,RU,1619557492
344,alugan,12.2188,125.4808,298.16,77,99,3.05,PH,1619557492
345,pacific grove,36.6177,-121.9166,290.37,55,40,6.17,US,1619557371
346,hamilton,39.1834,-84.5333,301.48,30,1,7.72,US,1619556966
347,danesti,46.5167,25.75,277.04,67,100,1.93,RO,1619557492
348,kilindoni,-7.9139,39.6668,299.96,82,71,4.59,TZ,1619557492
349,olafsvik,64.8945,-23.7142,279.91,79,99,1.2,IS,1619557493
350,sovetskiy,61.3614,63.5842,274.6,81,1,1.96,RU,1619557493
351,phan thiet,10.9333,108.1,298.56,87,100,2.58,VN,1619557355
352,mutis,6.2262,-77.4044,299.23,89,100,2.67,CO,1619557493
353,sazonovo,59.0919,35.2268,274.28,99,100,1.76,RU,1619557493
354,imbituba,-28.24,-48.6703,293.15,68,40,4.63,BR,1619557494
355,laguna,38.421,-121.4238,298.71,20,1,6.69,US,1619557494
356,nishihara,26.1842,127.7558,293.15,73,40,2.57,JP,1619557494
357,praia da vitoria,38.7333,-27.0667,288.71,88,75,4.77,PT,1619557494
358,racale,39.9631,18.0938,288.71,100,20,3.6,IT,1619557495
359,khuzdar,27.7384,66.6434,296.21,29,92,1.85,PK,1619557495
360,ngunguru,-35.6167,174.5,286.48,91,94,2.24,NZ,1619557495
361,visby,57.6409,18.296,277.15,81,90,3.09,SE,1619557496
362,port-cartier,50.0334,-66.8654,280.37,100,75,2.06,CA,1619557496
363,mogok,22.9167,96.5,292.24,73,1,1.53,MM,1619557496
364,skeldon,5.8833,-57.1333,296.21,96,100,1.89,GY,1619557269
365,saint-leu,-21.15,55.2833,297.15,88,0,1.54,RE,1619557496
366,kaeo,-35.1,173.7833,285.93,95,26,1.79,NZ,1619557329
367,mindelo,16.8901,-24.9804,295.15,68,40,8.75,CV,1619557497
368,bermejo,-32.8833,-68.8,297.15,38,0,3.6,AR,1619557497
369,castelo do piaui,-5.3222,-41.5525,299.58,68,71,1.41,BR,1619557497
370,ilhabela,-23.7781,-45.3581,294.43,89,100,1.73,BR,1619557498
371,aberdeen,57.1437,-2.0981,279.26,93,90,2.06,GB,1619557498
372,notre-dame-du-lac,47.6136,-68.7964,282.15,61,100,4.12,CA,1619557498
373,misratah,32.3754,15.0925,299.21,41,100,7.7,LY,1619557498
374,kathu,7.9178,98.3332,302.04,94,20,2.99,TH,1619557499
375,auki,-8.7676,160.7034,299.66,79,100,1.59,SB,1619557499
376,indramayu,-6.3264,108.32,299.33,80,93,2.38,ID,1619557499
377,chandil,22.9667,86.05,301.83,27,15,1.32,IN,1619557499
378,ubeda,38.0133,-3.3705,288.15,96,100,1.43,ES,1619557500
379,tromso,69.6496,18.957,272.15,93,75,1.54,NO,1619557500
380,peterhead,57.5058,-1.7981,279.15,93,90,2.06,GB,1619557500
381,shamkhal,43.0596,47.3373,285.15,87,40,4.0,RU,1619557500
382,suntar,62.1444,117.6319,264.01,94,52,0.74,RU,1619557501
383,gaogou,34.0175,119.1886,286.11,83,100,2.94,CN,1619557501
384,dasoguz,41.8363,59.9666,294.15,28,0,3.09,TM,1619557501
385,fare,-16.7,-151.0167,300.49,71,36,4.03,PF,1619557502
386,hearst,49.6835,-83.6665,281.15,61,100,1.03,CA,1619557502
387,manakara,-22.1333,48.0167,294.95,91,49,1.11,MG,1619557503
388,acari,-15.4311,-74.6158,297.22,63,99,3.22,PE,1619557503
389,dicabisagan,17.0818,122.4157,296.38,81,76,1.56,PH,1619557503
390,cockburn town,21.4612,-71.1419,299.08,72,1,7.16,TC,1619557504
391,balkhash,46.844,74.9804,286.73,44,0,4.24,KZ,1619557504
392,itaperucu,-25.22,-49.3478,291.15,77,20,3.6,BR,1619557318
393,nanortalik,60.1432,-45.2371,275.14,86,5,1.86,GL,1619557504
394,bijar,35.8668,47.6051,284.19,69,70,2.08,IR,1619557504
395,bang rakam,16.7585,100.1174,300.37,41,95,0.97,TH,1619557505
396,lufilufi,-13.8745,-171.5986,303.15,79,75,3.6,WS,1619557505
397,kalmar,56.6616,16.3616,275.37,69,47,1.54,SE,1619557318
398,faya,18.3851,42.4509,287.15,88,0,2.06,SA,1619557505
399,ulladulla,-35.35,150.4667,285.15,100,40,2.57,AU,1619557469
400,kabare,-2.4683,28.8242,289.46,96,100,0.77,CD,1619557506
401,mbandaka,0.0487,18.2603,295.7,92,97,0.57,CD,1619557506
402,kidal,18.4411,1.4078,309.09,14,92,5.35,ML,1619557506
403,estelle,29.8458,-90.1067,302.04,74,75,5.66,US,1619557506
404,mahanoro,-19.9,48.8,295.56,91,98,1.97,MG,1619557506
405,bilma,18.6853,12.9164,304.92,10,2,2.37,NE,1619557507
406,aklavik,68.2191,-135.0107,269.15,36,0,3.09,CA,1619557453
407,mpika,-11.8343,31.4529,289.39,96,97,1.92,ZM,1619557507
408,matagami,49.7502,-77.6328,284.15,15,1,2.57,CA,1619557507
409,xining,36.6167,101.7667,273.19,77,20,0.68,CN,1619557508
410,dubbo,-32.25,148.6167,283.15,93,94,4.63,AU,1619557430
411,liman,48.9884,37.8023,277.53,94,100,2.08,UA,1619557508
412,alice springs,-23.7,133.8833,281.15,66,0,2.57,AU,1619557508
413,lagoa,39.05,-27.9833,288.44,82,100,6.16,PT,1619557508
414,mana,5.6592,-53.7767,297.17,92,100,1.5,GF,1619557509
415,khislavichi,54.1871,32.1582,274.42,97,76,3.43,RU,1619557509
416,kushtagi,15.7667,76.2,301.2,41,19,4.06,IN,1619557509
417,madimba,-10.4,40.3333,298.15,94,75,4.12,TZ,1619557509
418,kamenka,51.3223,42.7678,277.59,76,76,3.46,RU,1619557510
419,karratha,-20.7377,116.8463,297.28,24,0,4.85,AU,1619557510
420,wanning,18.8003,110.3967,296.91,90,45,0.97,CN,1619557510
421,morondava,-20.2833,44.2833,296.55,90,0,4.73,MG,1619557510
422,uglovskoye,51.3557,80.1942,286.63,47,91,7.02,RU,1619557511
423,saskylakh,71.9167,114.0833,269.54,92,96,4.93,RU,1619557511
424,kyren,51.6828,102.1408,273.17,77,76,0.77,RU,1619557511
425,griffith,41.5284,-87.4237,303.15,37,1,12.35,US,1619557511
426,honiara,-9.4333,159.95,299.61,82,96,0.71,SB,1619557512
427,san cristobal,7.7669,-72.225,300.15,89,75,2.06,VE,1619557379
428,masterton,-40.9597,175.6575,284.26,79,78,1.79,NZ,1619557512
429,rudnogorsk,57.2639,103.7519,265.0,97,23,1.24,RU,1619557512
430,bud,39.447,-86.1758,301.15,30,1,9.26,US,1619557513
431,qaqortoq,60.7167,-46.0333,276.53,75,2,1.75,GL,1619557306
432,deep river,46.1001,-77.4995,285.15,40,20,0.8,CA,1619557513
433,zhigansk,66.7697,123.3711,256.14,95,18,2.48,RU,1619557513
434,xichang,27.8964,102.2634,287.23,85,60,1.67,CN,1619557513
435,mahibadhoo,3.7833,72.9667,301.62,72,75,2.69,MV,1619557514
436,bataipora,-22.2953,-53.2711,295.85,28,0,2.42,BR,1619557365
437,nouakchott,18.0858,-15.9785,293.15,83,0,7.72,MR,1619557482
438,manokwari,-0.8667,134.0833,298.48,78,82,0.73,ID,1619557514
439,sakakah,29.9697,40.2064,294.15,19,0,2.72,SA,1619557442
440,junin,-34.5838,-60.9433,293.71,16,0,2.61,AR,1619557514
441,trinidad,-14.8333,-64.9,298.04,70,55,1.68,BO,1619557514
442,tual,-5.6667,132.75,301.46,63,56,2.18,ID,1619557276
443,paamiut,61.994,-49.6678,275.53,82,0,7.03,GL,1619557391
444,zhangye,38.9342,100.4517,279.82,26,12,1.74,CN,1619557515
445,annau,37.8876,58.516,297.15,46,40,3.09,TM,1619557515
446,tyrma,50.0833,132.1667,280.88,95,100,2.0,RU,1619557515
447,goulburn,-34.75,149.7167,279.82,93,100,1.33,AU,1619557516
448,dabakala,8.3667,-4.4333,300.21,69,75,1.16,CI,1619557516
449,ciudad bolivar,8.1222,-63.5497,308.63,30,97,1.72,VE,1619557516
450,dabola,10.75,-11.1167,301.87,55,86,2.61,GN,1619557516
451,mogadishu,2.0371,45.3438,301.41,75,39,4.88,SO,1619557394
452,burnie,-41.0667,145.9167,282.59,93,17,1.34,AU,1619557438
453,hervey bay,-25.2986,152.8535,289.82,90,20,1.34,AU,1619557517
454,novo aripuana,-5.1206,-60.3797,299.99,91,97,0.6,BR,1619557517
455,luba,3.4568,8.5547,301.15,83,40,4.12,GQ,1619557517
456,okhotsk,59.3833,143.3,270.09,88,85,1.0,RU,1619557518
457,anshun,26.25,105.9333,286.66,92,100,1.98,CN,1619557518
458,labuhan,-6.8844,112.2051,297.46,87,33,2.95,ID,1619557518
459,airai,-8.9266,125.4092,286.52,70,11,0.66,TL,1619557328
460,blythe,33.6103,-114.5964,296.15,18,75,3.6,US,1619557342
461,kruisfontein,-34.0033,24.7314,288.15,83,42,0.89,ZA,1619557518
462,alakurtti,66.9672,30.3491,269.66,98,100,1.16,RU,1619557519
463,parczew,51.6402,22.9006,274.15,75,0,0.51,PL,1619557250
464,talaya,61.3833,152.75,262.6,84,23,1.09,RU,1619557519
465,juelsminde,55.7088,10.0167,278.71,52,100,3.14,DK,1619557519
466,alihe,50.5667,123.7167,273.04,70,24,1.3,CN,1619557517
467,correntina,-13.3433,-44.6367,299.63,57,99,0.65,BR,1619557520
468,taltal,-25.4,-70.4833,291.21,75,28,1.72,CL,1619557220
469,nome,64.5011,-165.4064,277.15,56,1,1.54,US,1619557520
470,san isidro,-12.1167,-77.05,293.71,77,40,5.66,PE,1619557520
471,upington,-28.4478,21.2561,289.15,44,7,1.54,ZA,1619557520
472,chernyshevskiy,63.0128,112.4714,257.02,97,40,0.5,RU,1619557521
473,marzuq,14.4,46.4667,294.96,72,100,0.37,YE,1619557521
474,shimoda,34.6667,138.95,289.26,63,94,6.76,JP,1619557521
475,tamandare,-8.7597,-35.1047,299.07,83,11,2.92,BR,1619557521
476,mulanje,-16.0316,35.5,293.3,87,5,1.72,MW,1619557522
477,aldan,58.6031,125.3894,263.54,95,100,4.09,RU,1619557522
478,fenoarivo,-18.933,47.4354,290.15,94,75,2.57,MG,1619557522
479,san ignacio,17.1561,-89.0714,308.15,41,75,4.12,BZ,1619557523
480,kashi,39.4547,75.9797,289.15,20,0,4.0,CN,1619557523
481,college,64.8569,-147.8028,279.82,24,75,5.14,US,1619557523
482,banes,20.9625,-75.7186,305.15,40,20,7.72,CU,1619557523
483,itoman,26.1247,127.6694,293.15,68,20,2.06,JP,1619557524
484,kemijarvi,66.7131,27.4306,267.61,93,70,2.32,FI,1619557524
485,pochutla,15.7432,-96.4661,305.37,66,40,4.12,MX,1619557524
486,troitsko-pechorsk,62.7084,56.1964,276.05,84,100,1.46,RU,1619557524
487,richards bay,-28.783,32.0377,296.2,86,45,6.21,ZA,1619557525
488,puerto baquerizo moreno,-0.9,-89.6,302.15,70,20,7.2,EC,1619557525
489,port moresby,-9.4431,147.1797,296.15,94,20,1.54,PG,1619557525
490,kununurra,-15.7667,128.7333,296.15,100,62,1.05,AU,1619557525
491,lakshettipet,18.8667,79.2167,303.64,32,12,1.3,IN,1619557526
492,yar-sale,66.8333,70.8333,272.61,94,100,2.54,RU,1619557526
493,tutoia,-2.7619,-42.2744,299.68,85,38,3.19,BR,1619557526
494,natal,-5.795,-35.2094,302.15,74,20,6.17,BR,1619557526
495,shagonar,51.5333,92.8,279.37,73,100,2.06,RU,1619557527
496,corinto,37.9407,22.9573,287.59,64,2,0.45,GR,1619557527
497,hambantota,6.1241,81.1185,299.69,85,94,4.3,LK,1619557527
498,chahuites,16.2833,-94.1833,305.18,55,35,4.66,MX,1619557527
499,omsukchan,62.5333,155.8,264.62,83,7,1.69,RU,1619557528
500,paciran,-6.8767,112.3761,297.95,86,38,2.58,ID,1619557528
501,voh,-20.9667,164.7,294.9,61,0,3.52,NC,1619557528
502,klishkivtsi,48.4316,26.2623,276.48,79,85,1.79,UA,1619557529
503,botwood,49.1499,-55.3482,284.82,59,100,1.34,CA,1619557529
504,beloha,-25.1667,45.05,296.07,63,4,2.4,MG,1619557529
505,tessalit,20.1986,1.0114,306.68,9,18,0.66,ML,1619557529
506,lebyazhye,55.2689,66.4947,282.04,68,98,1.94,RU,1619557530
507,gondanglegi,-7.7479,112.0132,297.42,83,17,4.51,ID,1619557530
508,kimbe,-5.5502,150.1429,298.18,89,15,1.45,PG,1619557530
509,midland,31.9974,-102.0779,305.93,20,40,6.69,US,1619557365
510,ukiah,39.1502,-123.2078,296.15,23,1,3.09,US,1619557530
511,verkhnevilyuysk,63.4453,120.3167,259.5,95,63,1.5,RU,1619557531
512,sola,-13.8833,167.55,299.93,68,43,4.34,VU,1619557275
513,sibu,2.3,111.8167,297.15,94,40,2.06,MY,1619557531
514,delijan,33.9905,50.6838,295.03,27,70,1.16,IR,1619557531
515,whyalla,-33.0333,137.5833,282.15,93,67,3.09,AU,1619557532
516,shibetsu,43.659,145.132,277.87,74,78,0.93,JP,1619557532
517,pamyat parizhskoy kommuny,56.1048,44.4952,276.15,93,75,4.0,RU,1619557532
518,sao joao da barra,-21.6403,-41.0511,298.15,88,90,2.57,BR,1619557432
519,placido de castro,-10.3353,-67.1856,300.42,67,100,1.47,BR,1619557532
520,taos,36.4072,-105.5731,286.48,33,20,8.23,US,1619557533
521,poya,-21.35,165.15,295.06,61,16,3.27,NC,1619557533
522,itaqui,-29.1253,-56.5531,291.57,57,0,2.15,BR,1619557322
523,banda aceh,5.5577,95.3222,299.51,79,94,1.45,ID,1619557256
524,tres arroyos,-38.3739,-60.2798,290.1,70,0,4.01,AR,1619557533
525,guerrero negro,27.9769,-114.0611,292.51,52,2,7.02,MX,1619557533
526,akureyri,65.6835,-18.0878,279.15,70,0,4.12,IS,1619557534
527,nara,34.6851,135.8049,289.26,63,75,2.06,JP,1619557272
528,bujaru,-1.515,-48.0447,300.15,83,75,2.57,BR,1619557534
529,shumskiy,54.8318,99.1328,275.13,96,100,0.34,RU,1619557534
530,buchanan,5.8808,-10.0467,300.15,89,40,3.04,LR,1619557535
531,san carlos de bariloche,-41.1456,-71.3082,290.37,48,75,11.32,AR,1619557259
532,vilhena,-12.7406,-60.1458,299.15,69,40,3.6,BR,1619557472
533,poso,-1.3959,120.7524,299.26,80,34,1.95,ID,1619557535
534,awjilah,29.1081,21.2869,299.27,15,0,4.84,LY,1619557535
535,nuqui,5.7125,-77.2708,299.77,84,100,2.71,CO,1619557535
536,takoradi,4.8845,-1.7554,300.98,83,98,4.74,GH,1619557536
537,ancud,-41.8697,-73.8203,287.04,94,90,3.09,CL,1619557536
538,pasaje,-3.3333,-79.8167,301.15,74,90,3.6,EC,1619557536
539,oranjemund,-28.55,16.4333,288.08,92,95,3.25,NA,1619557536
540,sao sebastiao,-23.76,-45.4097,294.18,91,100,1.54,BR,1619557443
541,constitucion,-35.3333,-72.4167,290.18,62,15,5.01,CL,1619557537
542,korla,41.7597,86.1469,288.54,31,32,2.02,CN,1619557537
543,nanchong,30.7951,106.0847,290.49,72,100,4.78,CN,1619557537
544,tiznit,29.5833,-9.5,287.54,80,34,2.53,MA,1619557537
545,san felipe,10.3399,-68.7425,300.81,65,100,3.25,VE,1619557538
546,puerto del rosario,28.5004,-13.8627,294.15,64,20,4.63,ES,1619557538
547,mitsamiouli,-11.3847,43.2844,300.39,76,21,3.74,KM,1619557538
548,touros,-5.1989,-35.4608,300.15,83,20,5.14,BR,1619557538
549,hoopstad,-27.8327,25.9083,290.1,35,56,1.91,ZA,1619557539
550,naron,43.5167,-8.1528,285.93,87,0,2.06,ES,1619557539
551,ambilobe,-13.2,49.05,295.68,94,13,1.51,MG,1619557539
552,turochak,52.2576,87.1224,278.83,98,100,1.46,RU,1619557539
553,bobo dioulasso,11.1771,-4.2979,305.15,48,20,1.03,BF,1619557406
554,banki,20.3833,85.5333,301.15,89,75,3.6,IN,1619557540
555,shiyan,32.6475,110.7781,285.37,80,100,0.45,CN,1619557540
556,natalio,-26.7167,-55.0833,290.55,51,0,1.4,PY,1619557540
557,coari,-4.085,-63.1414,299.93,91,71,1.06,BR,1619557541
558,sisimiut,66.9395,-53.6735,274.32,86,82,2.81,GL,1619557541
559,ouesso,1.6136,16.0517,296.99,84,100,1.31,CG,1619557541
560,champerico,14.3,-91.9167,305.15,66,75,5.14,GT,1619557541
561,lloydminster,53.2835,-110.0016,272.15,51,90,5.14,CA,1619557542
562,talara,-4.5772,-81.2719,298.15,65,0,9.26,PE,1619557542
563,abidjan,5.3094,-4.0197,299.15,94,75,3.09,CI,1619557542
564,calca,-13.3333,-71.95,292.15,27,40,7.72,PE,1619557542
