,City,Lat,Lng,Max Temp,Humidity,Cloudiness,Wind Speed,Country,Date
0,manado,1.487,124.8455,297.15,100,20,0.51,ID,1619802526
1,trelew,-43.249,-65.3051,296.77,16,77,4.16,AR,1619802527
2,alakurtti,66.9672,30.3491,272.04,50,100,2.68,RU,1619802293
3,ushuaia,-54.8,-68.3,278.15,81,75,0.51,AR,1619802527
4,port alfred,-33.5906,26.891,290.44,75,55,7.04,ZA,1619802527
5,guerrero negro,27.9769,-114.0611,298.81,37,0,3.98,MX,1619802527
6,turkistan,43.0,68.0,288.03,55,2,5.56,KZ,1619802528
7,souillac,-20.5167,57.5167,299.15,78,40,5.66,MU,1619802528
8,mamakan,57.8161,114.0028,270.17,95,12,0.85,RU,1619802528
9,thompson,55.7435,-97.8558,277.15,41,75,2.57,CA,1619802529
10,guadalajara,20.6667,-103.3333,299.26,40,1,1.54,MX,1619802106
11,busselton,-33.65,115.3333,283.71,97,86,1.66,AU,1619802529
12,hilo,19.7297,-155.09,295.15,78,20,3.09,US,1619802529
13,praia da vitoria,38.7333,-27.0667,289.82,63,20,0.75,PT,1619802419
14,trairi,-3.2778,-39.2689,303.46,61,59,4.79,BR,1619802240
15,fortuna,40.5982,-124.1573,290.93,82,1,2.06,US,1619802529
16,churapcha,62.0025,132.4325,272.11,96,100,1.38,RU,1619802530
17,tuatapere,-46.1333,167.6833,278.71,93,58,0.89,NZ,1619802530
18,dikson,73.5069,80.5464,259.11,96,91,3.92,RU,1619802530
19,arraial do cabo,-22.9661,-42.0278,299.15,69,20,4.63,BR,1619802530
20,menemen,38.6075,27.0694,298.71,68,0,1.54,TR,1619802531
21,castro,-24.7911,-50.0119,293.0,51,24,4.32,BR,1619802531
22,iqaluit,63.7506,-68.5145,275.15,75,75,5.66,CA,1619802531
23,carnarvon,-24.8667,113.6333,293.15,77,86,5.14,AU,1619802284
24,hithadhoo,-0.6,73.0833,302.15,73,40,3.32,MV,1619802532
25,kapoeta,4.7717,33.5903,298.51,68,46,4.66,SS,1619802532
26,lazaro cardenas,17.9583,-102.2,302.15,57,49,3.54,MX,1619802532
27,bilma,18.6853,12.9164,309.17,4,0,2.32,NE,1619802532
28,cabo san lucas,22.8909,-109.9124,302.15,32,1,3.6,MX,1619802243
29,inza,53.8533,46.3586,283.5,58,100,6.28,RU,1619802533
30,esperance,-33.8667,121.9,282.15,93,40,2.57,AU,1619802533
31,dunda,-8.1167,34.25,293.49,81,72,1.44,TZ,1619802533
32,chokurdakh,70.6333,147.9167,254.3,94,32,1.96,RU,1619802534
33,camana,-16.6228,-72.7111,294.85,69,17,4.5,PE,1619802534
34,lipin bor,60.2622,37.9763,274.09,98,100,2.7,RU,1619802534
35,barrow,71.2906,-156.7887,266.15,86,90,2.06,US,1619802534
36,aripuana,-9.1667,-60.6333,301.86,62,99,1.32,BR,1619802535
37,mar del plata,-38.0023,-57.5575,294.26,64,0,8.23,AR,1619802358
38,binzhou,37.3667,118.0167,279.14,77,5,2.82,CN,1619802535
39,shatoy,42.8714,45.6886,289.15,82,0,3.0,RU,1619802535
40,bredasdorp,-34.5322,20.0403,288.15,58,35,1.54,ZA,1619802535
41,atuona,-9.8,-139.0333,299.13,71,19,2.44,PF,1619802536
42,butaritari,3.0707,172.7902,301.08,75,69,5.05,KI,1619802536
43,bataipora,-22.2953,-53.2711,302.38,22,25,2.93,BR,1619802536
44,pundaguitan,6.3711,126.1689,301.12,77,99,6.03,PH,1619802536
45,ponta do sol,32.6667,-17.1,292.15,55,20,7.2,PT,1619802537
46,new norfolk,-42.7826,147.0587,283.15,85,5,1.41,AU,1619802537
47,ilulissat,69.2167,-51.1,277.15,48,20,1.54,GL,1619802537
48,nha trang,12.25,109.1833,300.15,83,20,2.57,VN,1619802534
49,cape town,-33.9258,18.4232,289.82,59,0,8.75,ZA,1619801970
50,santa isabel do rio negro,-0.4139,-65.0192,301.45,70,94,1.35,BR,1619802538
51,bahia blanca,-38.7196,-62.2724,297.13,30,1,8.4,AR,1619802335
52,fatehpur,25.9333,80.8,307.11,13,3,3.21,IN,1619802538
53,kununurra,-15.7667,128.7333,291.15,94,0,2.22,AU,1619802538
54,katherine,-14.4667,132.2667,292.15,77,0,1.54,AU,1619802539
55,punta arenas,-53.15,-70.9167,278.15,100,90,3.6,CL,1619802427
56,khatanga,71.9667,102.5,272.55,96,100,4.07,RU,1619802539
57,vao,-22.6667,167.4833,296.78,59,91,8.48,NC,1619802539
58,korla,41.7597,86.1469,297.28,16,0,1.7,CN,1619802539
59,jamestown,42.097,-79.2353,280.93,70,90,7.72,US,1619802540
60,rikitea,-23.1203,-134.9692,299.18,75,43,8.88,PF,1619802540
61,hermanus,-34.4187,19.2345,285.93,75,3,2.87,ZA,1619802540
62,whitley bay,55.0397,-1.4471,281.15,66,40,5.14,GB,1619802540
63,carutapera,-1.195,-46.02,297.06,94,100,0.89,BR,1619802541
64,pasighat,28.0667,95.3333,299.77,39,68,1.6,IN,1619802541
65,antofagasta,-23.65,-70.4,294.26,77,75,6.17,CL,1619802541
66,bluff,-46.6,168.3333,278.71,93,61,0.89,NZ,1619802262
67,hasaki,35.7333,140.8333,284.15,87,20,1.03,JP,1619802542
68,kodiak,57.79,-152.4072,279.15,52,1,5.14,US,1619802542
69,rio gallegos,-51.6226,-69.2181,280.15,87,40,4.12,AR,1619802357
70,mastung,29.7994,66.845,295.78,22,38,2.36,PK,1619802542
71,mataura,-46.1927,168.8643,278.71,93,51,0.89,NZ,1619802542
72,eldorado,-23.7869,-54.2836,300.05,28,2,4.11,BR,1619802543
73,albany,42.6001,-73.9662,285.93,73,93,8.62,US,1619802536
74,kamyzyak,46.11,48.0736,290.15,45,0,5.0,RU,1619802543
75,mayo,38.8876,-76.5119,293.71,34,1,9.26,US,1619802543
76,gornopravdinsk,60.05,69.9,275.09,90,74,4.3,RU,1619802544
77,hofn,64.2539,-15.2082,276.15,75,90,6.69,IS,1619802544
78,zainsk,55.3195,52.0694,284.15,32,0,2.0,RU,1619802544
79,valparaiso,-33.0393,-71.6273,292.15,72,20,2.57,CL,1619802413
80,batagay-alyta,67.8006,130.4114,266.63,97,81,1.19,RU,1619802544
81,itarema,-2.9248,-39.9167,303.06,64,83,4.03,BR,1619802545
82,port hedland,-20.3167,118.5667,295.15,88,0,2.06,AU,1619802545
83,arawa,-6.2132,155.5367,297.41,88,64,1.1,PG,1619802545
84,kisujszallas,47.2167,20.7667,294.15,46,0,3.09,HU,1619802545
85,mana,5.6592,-53.7767,297.54,92,98,3.46,GF,1619802546
86,avarua,-21.2078,-159.775,298.15,94,75,1.03,CK,1619802546
87,puerto ayora,-0.7393,-90.3518,301.15,69,40,7.72,EC,1619802546
88,teya,60.3778,92.6267,275.7,98,99,4.88,RU,1619802547
89,batagay,67.6333,134.6333,269.6,93,100,0.95,RU,1619802547
90,cordoba,-31.4135,-64.1811,297.15,43,0,7.72,AR,1619802279
91,chimore,-16.9833,-65.1333,301.12,37,0,1.44,BO,1619802547
92,tasiilaq,65.6145,-37.6368,274.15,64,20,5.14,GL,1619802547
93,vaini,-21.2,-175.2,297.15,94,75,5.14,TO,1619802548
94,smithers,54.7804,-127.1743,280.15,76,90,1.4,CA,1619802548
95,severo-kurilsk,50.6789,156.125,274.83,91,100,8.18,RU,1619802548
96,maneromango,-7.1988,38.7848,299.15,94,75,2.57,TZ,1619802548
97,namioka,40.7072,140.5894,280.93,90,77,3.13,JP,1619802549
98,panacan,9.2463,118.4082,299.87,74,28,2.33,PH,1619802549
99,touros,-5.1989,-35.4608,298.15,88,75,5.14,BR,1619802549
100,debre sina,9.85,39.7667,285.51,89,100,0.34,ET,1619802549
101,qurayyat,31.3318,37.3428,307.15,12,0,4.12,SA,1619802496
102,hobart,-42.8794,147.3294,283.15,87,3,3.6,AU,1619802495
103,tiksi,71.6872,128.8694,272.19,80,94,1.77,RU,1619802550
104,san patricio,28.017,-97.5169,296.48,94,90,2.06,US,1619802550
105,qaanaaq,77.484,-69.3632,273.54,65,53,3.0,GL,1619802550
106,lorengau,-2.0226,147.2712,299.96,78,96,1.06,PG,1619802551
107,pedro betancourt,22.7272,-81.29,304.15,42,75,5.14,CU,1619802551
108,flin flon,54.7682,-101.865,277.15,41,90,1.03,CA,1619802551
109,nawa,27.0167,75.0,301.81,26,99,2.72,IN,1619802551
110,ponazyrevo,58.3578,46.3142,280.71,91,100,5.89,RU,1619802552
111,halifax,44.6453,-63.5724,281.48,93,90,10.29,CA,1619802317
112,kapaa,22.0752,-159.319,294.15,88,75,3.09,US,1619802552
113,lompoc,34.6391,-120.4579,291.15,93,90,3.09,US,1619802273
114,bambous virieux,-20.3428,57.7575,299.15,78,40,5.66,MU,1619802552
115,yellowknife,62.456,-114.3525,272.04,86,90,6.69,CA,1619802553
116,belyy yar,53.6039,91.3903,278.15,81,0,3.0,RU,1619802553
117,chuy,-33.6971,-53.4616,294.8,45,1,3.23,UY,1619802553
118,encantado,-29.2361,-51.8697,300.37,50,0,1.33,BR,1619802553
119,constitucion,-35.3333,-72.4167,288.2,78,100,5.01,CL,1619802554
120,salsomaggiore terme,44.8148,9.9796,296.15,88,75,2.57,IT,1619802554
121,mankono,8.0586,-6.1897,306.91,39,69,4.19,CI,1619802554
122,bengkulu,-3.8004,102.2655,298.28,87,100,1.92,ID,1619802555
123,raudeberg,61.9875,5.1352,278.71,71,11,8.9,NO,1619802555
124,larsnes,62.2028,5.5773,280.15,49,20,1.54,NO,1619802555
125,borba,-4.3878,-59.5939,302.81,71,37,0.94,BR,1619802555
126,lebu,-37.6167,-73.65,288.33,78,100,8.08,CL,1619802556
127,salinas,36.6777,-121.6555,290.15,59,1,1.54,US,1619802286
128,laguna,38.421,-121.4238,294.82,48,96,1.34,US,1619802383
129,umm lajj,25.0213,37.2685,301.96,55,3,2.65,SA,1619802556
130,krasnyy yar,46.5331,48.3456,290.15,45,0,5.0,RU,1619802556
131,faanui,-16.4833,-151.75,299.12,80,97,2.5,PF,1619802557
132,guadalupe y calvo,26.1,-106.9667,288.26,27,41,1.09,MX,1619802557
133,broken hill,-31.95,141.4333,291.15,42,24,4.12,AU,1619802557
134,upernavik,72.7868,-56.1549,274.19,78,93,2.6,GL,1619802290
135,taoudenni,22.6783,-3.9836,306.66,24,98,4.31,ML,1619802477
136,hay river,60.8156,-115.7999,274.15,93,100,1.54,CA,1619802428
137,zlobin,45.2924,14.6541,291.15,68,0,1.54,HR,1619802558
138,mahebourg,-20.4081,57.7,299.15,78,40,5.66,MU,1619802558
139,formosa do rio preto,-11.0483,-45.1931,304.27,41,90,3.1,BR,1619802558
140,misratah,32.3754,15.0925,300.53,45,96,6.0,LY,1619802558
141,georgetown,5.4112,100.3354,298.15,100,40,1.54,MY,1619802431
142,egvekinot,66.3167,-179.1667,264.69,94,100,1.57,RU,1619802559
143,toowoomba,-27.55,151.9667,289.15,88,90,7.2,AU,1619802559
144,mokhsogollokh,61.4681,128.9203,272.49,99,100,1.44,RU,1619802559
145,vera cruz,-12.6333,-41.0333,296.15,88,75,5.14,BR,1619802559
146,bryan,30.6744,-96.37,294.15,100,90,5.66,US,1619802560
147,port elizabeth,-33.918,25.5701,289.15,72,0,9.26,ZA,1619802323
148,bogande,12.9714,-0.1436,314.11,12,57,2.69,BF,1619802560
149,ocean city,39.2776,-74.5746,293.15,32,75,11.83,US,1619802560
150,college,64.8569,-147.8028,272.59,74,90,5.14,US,1619802561
151,praya,14.9215,-23.5087,298.15,61,20,10.29,CV,1619802561
152,adrar,20.5022,-10.0711,306.22,22,90,0.88,MR,1619802561
153,mahon,39.8885,4.2658,291.15,77,20,4.12,ES,1619802561
154,lagoa,39.05,-27.9833,287.58,61,9,2.09,PT,1619802562
155,kieta,-6.2167,155.6333,298.77,81,59,0.7,PG,1619802562
156,cherskiy,68.75,161.3,253.71,100,99,0.81,RU,1619802562
157,saint-philippe,-21.3585,55.7679,298.15,78,0,2.06,RE,1619802317
158,srednekolymsk,67.45,153.6833,258.09,97,33,3.13,RU,1619802562
159,airai,-8.9266,125.4092,287.45,86,100,1.11,TL,1619802563
160,barcelos,41.5388,-8.6151,289.26,63,20,8.23,PT,1619802563
161,hit,33.6416,42.8251,305.05,16,3,4.86,IQ,1619802563
162,north battleford,52.7834,-108.2847,285.15,40,1,1.03,CA,1619802564
163,te anau,-45.4167,167.7167,277.31,93,23,0.48,NZ,1619802564
164,san mateo del mar,16.2,-95.0,301.45,71,96,4.34,MX,1619802564
165,ha giang,22.8333,104.9833,296.12,92,54,0.37,VN,1619802564
166,gamba,-2.65,10.0,299.83,81,100,2.15,GA,1619802565
167,nanortalik,60.1432,-45.2371,278.76,64,7,2.59,GL,1619802350
168,padang,-0.9492,100.3543,298.15,94,20,1.03,ID,1619802372
169,olinda,-8.0089,-34.8553,301.15,69,40,7.72,BR,1619802565
170,mangai,-4.05,19.5333,296.73,90,100,0.67,CD,1619802565
171,leningradskiy,69.3833,178.4167,263.12,91,92,7.64,RU,1619802566
172,christchurch,-43.5333,172.6333,283.71,87,90,2.06,NZ,1619802484
173,tual,-5.6667,132.75,301.2,75,37,5.2,ID,1619802566
174,la rioja,42.25,-2.5,284.26,76,75,3.6,ES,1619802299
175,birjand,32.8663,59.2211,292.15,45,20,3.09,IR,1619802566
176,makat,47.6469,53.3463,289.16,26,2,4.6,KZ,1619802566
177,gat,31.61,34.7642,298.71,52,1,3.65,IL,1619802567
178,grindavik,63.8424,-22.4338,278.15,70,40,11.32,IS,1619802567
179,tilichiki,60.4667,166.1,266.3,96,62,3.86,RU,1619802567
180,stettler,52.3168,-112.7186,292.15,34,42,6.69,CA,1619802567
181,san cristobal,7.7669,-72.225,302.15,58,40,1.03,VE,1619802568
182,sauga,58.4272,24.495,279.26,59,44,6.71,EE,1619802568
183,honningsvag,70.9821,25.9704,273.15,69,75,15.43,NO,1619802568
184,sofiyivka,48.0493,33.8746,290.93,48,0,4.0,UA,1619802569
185,anadyr,64.75,177.4833,265.15,86,75,4.0,RU,1619802569
186,east london,-33.0153,27.9116,290.15,77,0,4.12,ZA,1619802569
187,ayan,56.45,138.1667,272.25,97,100,6.42,RU,1619802569
188,nsanje,-16.92,35.262,301.26,64,76,2.07,MW,1619802570
189,provideniya,64.3833,-173.3,270.11,71,97,1.2,RU,1619802570
190,saldanha,-33.0117,17.9442,290.15,51,0,5.66,ZA,1619802326
191,verkhnevilyuysk,63.4453,120.3167,272.09,97,100,1.95,RU,1619802570
192,ust-ilimsk,58.0006,102.6619,275.42,98,100,2.85,RU,1619802429
193,kaliganj,23.4095,89.1402,304.19,43,66,4.75,BD,1619802571
194,chifeng,42.2683,118.9636,279.58,35,100,2.29,CN,1619802571
195,itoman,26.1247,127.6694,295.15,83,40,6.17,JP,1619802571
196,klaksvik,62.2266,-6.589,277.15,56,75,3.09,FO,1619802571
197,sitka,57.0531,-135.33,280.15,81,90,1.56,US,1619802315
198,dalaba,10.7,-12.25,302.45,27,76,2.92,GN,1619802572
199,esso,55.9333,158.7,272.51,94,96,1.21,RU,1619802572
200,narsaq,60.9167,-46.05,287.15,26,20,8.23,GL,1619802572
201,sur,22.5667,59.5289,303.69,36,88,5.34,OM,1619802572
202,vardo,70.3705,31.1107,269.15,74,20,8.23,NO,1619802573
203,opuwo,-18.0607,13.84,299.36,27,51,3.06,NA,1619802573
204,meadow lake,34.8014,-106.5436,293.15,29,1,0.58,US,1619802573
205,tuktoyaktuk,69.4541,-133.0374,263.15,79,20,4.63,CA,1619802573
206,virginia beach,36.8529,-75.978,297.04,36,0,0.45,US,1619802526
207,isangel,-19.55,169.2667,297.86,77,80,6.6,VU,1619802429
208,saskylakh,71.9167,114.0833,273.09,89,100,3.92,RU,1619802574
209,oranjemund,-28.55,16.4333,287.69,80,0,7.14,NA,1619802574
210,hamilton,39.1834,-84.5333,294.26,35,20,9.26,US,1619802465
211,west bay,19.3667,-81.4167,302.15,74,40,4.63,KY,1619802574
212,huarmey,-10.0681,-78.1522,295.8,74,5,4.76,PE,1619802347
213,amapa,1.0,-52.0,305.48,47,77,1.3,BR,1619802575
214,kaeo,-35.1,173.7833,286.48,95,95,1.34,NZ,1619802575
215,mitsamiouli,-11.3847,43.2844,301.17,74,36,1.65,KM,1619802575
216,asau,46.4333,26.4,290.37,38,17,4.7,RO,1619802576
217,victoria,22.2855,114.1577,298.15,84,87,0.45,HK,1619802375
218,nampula,-15.1165,39.2666,299.15,83,40,3.6,MZ,1619802576
219,lewistown,40.5992,-77.5714,290.93,46,40,12.86,US,1619802576
220,uthal,25.8072,66.6219,301.4,44,88,6.59,PK,1619802576
221,mehamn,71.0357,27.8492,272.15,93,75,15.95,NO,1619802292
222,bisauli,28.3167,78.9333,307.09,17,26,7.16,IN,1619802577
223,clyde,41.3042,-82.9752,283.15,75,81,6.79,US,1619802371
224,saint-pierre,-21.3393,55.4781,298.15,78,0,2.06,RE,1619802338
225,hami,42.8,93.45,296.74,13,0,0.85,CN,1619802577
226,aosta,45.7667,7.4167,287.04,67,98,0.89,IT,1619802577
227,baruun-urt,46.6806,113.2792,273.9,60,25,4.75,MN,1619802578
228,zhigalovo,54.8097,105.1578,274.55,85,100,1.91,RU,1619802578
229,calabar,4.9517,8.322,301.03,81,100,2.16,NG,1619802578
230,buala,-8.145,159.5921,299.18,82,94,1.72,SB,1619802578
231,pangody,65.85,74.4859,270.24,95,100,5.54,RU,1619802579
232,copacabana,6.3463,-75.5089,290.37,82,75,1.54,CO,1619802579
233,poum,-20.2333,164.0167,297.31,69,78,4.65,NC,1619802579
234,huangmei,30.1924,116.025,294.83,80,0,0.99,CN,1619802579
235,kavieng,-2.5744,150.7967,300.64,76,80,2.58,PG,1619802580
236,cayenne,4.9333,-52.3333,302.15,74,75,2.61,GF,1619802580
237,at-bashi,41.1702,75.8106,286.58,36,22,1.8,KG,1619802580
238,kharp,66.8014,65.8081,264.48,89,100,2.89,RU,1619802580
239,nipawin,53.3668,-104.0009,281.15,49,75,5.66,CA,1619802431
240,oblivskaya,48.5362,42.5014,285.0,88,89,4.88,RU,1619802581
241,tessalit,20.1986,1.0114,313.92,5,75,6.99,ML,1619802581
242,tazovskiy,67.4667,78.7,272.98,96,100,4.73,RU,1619802291
243,xuanhua,40.6103,115.0447,279.71,32,6,2.33,CN,1619802581
244,saint george,37.1041,-113.5841,299.26,22,14,0.95,US,1619802493
245,araouane,18.9048,-3.5265,308.58,22,68,4.53,ML,1619802582
246,lamu,-2.2717,40.902,300.58,79,78,5.59,KE,1619802425
247,beloha,-25.1667,45.05,295.37,75,42,2.75,MG,1619802582
248,mongo,12.1844,18.693,309.67,10,1,2.56,TD,1619802582
249,makakilo city,21.3469,-158.0858,296.15,78,1,2.06,US,1619802582
250,amurzet,47.6967,131.0981,280.51,58,91,3.88,RU,1619802583
251,berezovyy,51.6667,135.7,270.6,83,33,1.34,RU,1619802583
252,nikolskoye,59.7035,30.7861,280.93,49,0,6.0,RU,1619802583
253,flinders,-34.5833,150.8552,287.59,89,10,0.45,AU,1619802583
254,dingle,10.9995,122.6711,297.73,69,46,2.36,PH,1619802584
255,northam,51.0333,-4.2167,283.71,70,17,2.24,GB,1619802584
256,kuraymah,18.55,31.85,309.06,10,14,3.42,SD,1619802584
257,karratha,-20.7377,116.8463,300.73,46,2,3.05,AU,1619802340
258,nome,64.5011,-165.4064,265.15,73,1,1.54,US,1619802585
259,rehoboth,-23.3167,17.0833,291.8,33,0,4.46,NA,1619802585
260,ribeira grande,38.5167,-28.7,290.15,67,75,3.6,PT,1619802585
261,ancud,-41.8697,-73.8203,286.48,100,90,7.2,CL,1619802585
262,santo domingo,18.5001,-69.9886,304.15,62,20,5.14,DO,1619802421
263,aykhal,66.0,111.5,269.89,98,100,1.68,RU,1619802352
264,husavik,66.0449,-17.3389,275.15,80,75,6.69,IS,1619802586
265,san quintin,30.4833,-115.95,297.58,41,0,4.13,MX,1619802586
266,cidreira,-30.1811,-50.2056,295.12,63,0,5.9,BR,1619802586
267,myaundzha,63.0494,147.1858,269.72,94,100,0.74,RU,1619802586
268,massakory,12.996,15.7293,310.65,6,1,2.61,TD,1619802587
269,san juan,-31.5375,-68.5364,297.4,33,97,1.39,AR,1619802322
270,lavrentiya,65.5833,-171.0,262.82,89,26,2.22,RU,1619802330
271,quang ngai,15.1167,108.8,297.29,92,19,1.32,VN,1619802587
272,cockburn town,21.4612,-71.1419,301.15,61,40,5.14,TC,1619802325
273,aksarka,66.5606,67.7975,266.52,93,100,2.98,RU,1619802587
274,kampot,10.6167,104.1833,298.15,94,75,1.03,KH,1619802376
275,ponta delgada,37.7333,-25.6667,289.15,67,75,5.66,PT,1619802588
276,trincomalee,8.5711,81.2335,302.07,72,40,2.09,LK,1619802588
277,ishigaki,24.3448,124.1572,296.87,88,81,4.89,JP,1619802588
278,aklavik,68.2191,-135.0107,268.15,86,100,3.09,CA,1619802588
279,yashkul,46.1711,45.3435,289.37,55,83,4.84,RU,1619802589
280,norman wells,65.282,-126.8329,275.15,55,40,2.57,CA,1619802589
281,gizo,-8.103,156.8419,300.52,75,48,2.01,SB,1619802589
282,tautira,-17.7333,-149.15,298.15,83,75,2.06,PF,1619802590
283,tiznit,29.5833,-9.5,287.98,61,67,5.47,MA,1619802590
284,marsh harbour,26.5412,-77.0636,299.46,66,8,5.06,BS,1619802590
285,camacha,33.0833,-16.3333,292.15,52,20,6.17,PT,1619802590
286,krasnaya gora,52.9995,31.6023,287.15,88,90,2.0,RU,1619802591
287,beyneu,45.3167,55.2,292.05,17,98,4.79,KZ,1619802591
288,shelburne,44.0787,-80.2041,279.26,95,75,11.07,CA,1619802591
289,nardaran,40.5561,50.0056,286.15,88,0,2.06,AZ,1619802591
290,berlevag,70.8578,29.0864,270.15,86,40,9.26,NO,1619802592
291,the valley,18.217,-63.0578,302.15,65,20,7.2,AI,1619802468
292,dobrljin,45.1533,16.4775,298.15,41,0,3.09,BA,1619802592
293,bolanos de calatrava,38.9069,-3.6635,289.15,41,40,3.6,ES,1619802592
294,santander,43.4647,-3.8044,287.04,62,75,2.57,ES,1619802593
295,shahr-e babak,30.1165,55.1186,288.95,57,86,5.09,IR,1619802593
296,whitehorse,60.7161,-135.0538,278.71,60,75,5.66,CA,1619802593
297,samfya,-11.3649,29.5565,295.72,69,92,1.3,ZM,1619802593
298,barwadih,23.8333,84.1167,301.86,14,49,1.52,IN,1619802594
299,nanakuli,21.3906,-158.1547,295.15,78,1,2.06,US,1619802594
300,kodinsk,58.6881,99.1844,275.24,94,81,2.04,RU,1619802594
301,caconda,-13.7333,15.0667,291.91,68,93,1.52,AO,1619802594
302,kashi,39.4547,75.9797,296.15,16,0,1.63,CN,1619802595
303,belaya gora,68.5333,146.4167,268.82,90,100,3.97,RU,1619802595
304,nelson bay,-32.7167,152.15,289.82,100,90,3.9,AU,1619802595
305,chalchihuites,23.4833,-103.8833,294.52,30,0,7.89,MX,1619802595
306,havre-saint-pierre,50.2334,-63.5986,282.15,81,40,5.14,CA,1619802596
307,hualmay,-11.0964,-77.6139,295.42,71,7,3.81,PE,1619802596
308,knyaze-volkonskoye,48.4642,135.4567,275.15,75,0,7.0,RU,1619802596
309,talaya,61.3833,152.75,271.11,79,100,1.43,RU,1619802596
310,huilong,31.8111,121.655,292.59,68,99,4.86,CN,1619802597
311,bratsk,56.1325,101.6142,277.15,87,75,6.0,RU,1619802597
312,grand gaube,-20.0064,57.6608,298.71,81,9,3.58,MU,1619802597
313,iberia,29.9502,-91.7507,299.26,89,75,2.06,US,1619802597
314,thunder bay,48.4001,-89.3168,283.71,29,20,6.17,CA,1619802109
315,mount gambier,-37.8333,140.7667,286.15,58,99,4.12,AU,1619802338
316,rodrigues alves,-7.738,-72.6509,301.15,61,0,2.57,BR,1619802598
317,nicoya,10.1483,-85.452,306.15,43,40,4.63,CR,1619802598
318,svay rieng,11.0879,105.7993,300.98,76,73,4.49,KH,1619802598
319,zheshart,62.0731,49.5733,276.3,75,98,2.39,RU,1619802599
320,strezhevoy,60.7333,77.5889,276.15,87,75,3.0,RU,1619802599
321,yulara,-25.2406,130.9889,285.15,40,81,2.06,AU,1619802599
322,metro,-5.1131,105.3067,297.26,92,100,1.78,ID,1619802599
323,seddon,-37.8068,144.8916,286.15,66,2,2.06,AU,1619802600
324,galesong,-5.3166,119.3661,296.15,94,20,2.57,ID,1619802600
325,lebyazhye,55.2689,66.4947,279.8,48,84,6.38,RU,1619802600
326,brae,60.3964,-1.353,278.15,81,75,2.06,GB,1619802601
327,vila velha,-20.3297,-40.2925,298.71,65,75,8.75,BR,1619802467
328,la palma,33.8464,-118.0467,302.04,32,1,1.54,US,1619802601
329,caravelas,-17.7125,-39.2481,298.66,73,81,5.15,BR,1619802601
330,steinbach,50.1667,8.5667,287.04,54,20,3.09,DE,1619802604
331,ostrovnoy,68.0531,39.5131,270.5,82,100,5.67,RU,1619802604
332,yanam,16.7333,82.2167,302.15,65,20,3.09,IN,1619802427
333,bud,39.447,-86.1758,293.15,45,1,5.66,US,1619802605
334,ambulu,-8.345,113.6058,296.93,89,53,1.49,ID,1619802605
335,qaqortoq,60.7167,-46.0333,287.15,26,20,8.23,GL,1619802605
336,rudersberg,48.8852,9.5293,279.82,87,100,0.4,DE,1619802606
337,torbay,47.6666,-52.7314,282.59,61,75,6.69,CA,1619802606
338,wanning,18.8003,110.3967,297.81,85,14,1.91,CN,1619802606
339,kaitangata,-46.2817,169.8464,281.48,72,41,1.79,NZ,1619802607
340,phonhong,18.5007,102.4166,296.63,91,86,0.71,LA,1619802607
341,beidao,34.5686,105.8933,288.97,37,0,1.58,CN,1619802607
342,jablanica,43.6603,17.7617,299.15,36,20,2.57,BA,1619802607
343,san policarpo,12.1791,125.5072,299.33,74,38,1.66,PH,1619802608
344,kloulklubed,7.0419,134.2556,299.15,89,75,1.54,PW,1619802608
345,minab,27.1467,57.0801,298.15,69,75,4.12,IR,1619802434
346,ust-kuyga,70.0167,135.6,270.61,93,91,1.93,RU,1619802374
347,aitape,-3.1374,142.3475,298.59,87,80,2.27,PG,1619802608
348,peddapalli,18.6167,79.3667,302.3,51,17,6.61,IN,1619802609
349,haines junction,60.7522,-137.5108,278.15,56,100,0.51,CA,1619802609
350,lagos,6.5833,3.75,304.15,70,75,4.12,NG,1619801824
351,geraldton,-28.7667,114.6,285.15,76,79,4.63,AU,1619802609
352,taft,31.7471,54.2088,300.15,22,0,4.12,IR,1619802610
353,luderitz,-26.6481,15.1594,291.79,49,0,10.63,NA,1619802610
354,toamasina,-18.1667,49.3833,297.15,94,75,3.6,MG,1619802610
355,pevek,69.7008,170.3133,261.79,95,100,4.17,RU,1619802610
356,ulladulla,-35.35,150.4667,286.15,100,4,2.06,AU,1619802611
357,kruisfontein,-34.0033,24.7314,287.59,72,0,4.0,ZA,1619802611
358,biskamzha,53.4497,89.5272,274.26,97,100,0.66,RU,1619802611
359,toronto,43.7001,-79.4163,282.15,61,69,9.33,CA,1619802310
360,kahului,20.8947,-156.47,295.15,100,90,5.66,US,1619802611
361,gafargaon,24.4333,90.5667,304.15,51,35,1.54,BD,1619802612
362,marshall,34.3834,-86.3333,294.26,49,1,3.09,US,1619802317
363,barao de melgaco,-16.1944,-55.9675,302.15,48,20,1.54,BR,1619802612
364,chernyshevskiy,63.0128,112.4714,269.34,97,99,1.45,RU,1619802322
365,pizarro,4.9533,-77.366,298.47,87,100,4.87,CO,1619802460
366,pointe michel,15.25,-61.3833,303.15,54,20,2.06,DM,1619802612
367,lae,-6.7221,146.9847,297.29,90,92,1.78,PG,1619802613
368,bokovskaya,49.229,41.8306,282.9,92,70,3.41,RU,1619802613
369,faya,18.3851,42.4509,295.15,30,40,4.63,SA,1619802613
370,kautokeino,69.0125,23.0412,265.9,76,91,6.05,NO,1619802613
371,matagami,49.7502,-77.6328,275.15,75,90,10.29,CA,1619802614
372,matamoros,25.5333,-103.25,296.15,43,75,3.88,MX,1619802614
373,sosnytsya,51.5239,32.4999,286.72,89,97,4.75,UA,1619802611
374,bandrele,-12.9067,45.1914,300.15,78,20,4.12,YT,1619802614
375,imeni poliny osipenko,52.4201,136.4853,270.5,93,51,2.73,RU,1619802614
376,gondanglegi,-7.7479,112.0132,297.06,91,99,1.24,ID,1619802615
377,kulhudhuffushi,6.6221,73.07,302.33,72,34,2.62,MV,1619802615
378,pozoblanco,38.3791,-4.8483,294.15,37,40,1.54,ES,1619802615
379,kenai,60.5544,-151.2583,276.15,86,90,4.63,US,1619802615
380,khash,28.2211,61.2158,292.98,49,100,0.7,IR,1619802616
381,mashhad,36.297,59.6062,292.15,68,75,3.09,IR,1619802452
382,san borja,-14.8167,-66.85,301.27,47,3,1.36,BO,1619802616
383,nishihara,26.1842,127.7558,295.15,83,75,3.6,JP,1619802616
384,hwange,-18.3693,26.5019,297.12,60,56,1.1,ZW,1619802617
385,tyukhtet,56.5389,89.3011,277.35,82,14,3.02,RU,1619802617
386,hobyo,5.3505,48.5268,302.67,64,92,5.46,SO,1619802617
387,maldonado,-34.6667,-54.9167,296.15,56,0,2.06,UY,1619802617
388,broome,42.2506,-75.833,282.15,66,90,9.77,US,1619802328
389,sonoita,31.85,-112.8333,303.15,15,0,3.63,MX,1619802618
390,naze,28.3667,129.4833,292.03,77,100,7.14,JP,1619802618
391,alofi,-19.0595,-169.9187,295.15,100,100,0.51,NU,1619802618
392,katsuura,35.1333,140.3,289.15,82,20,5.66,JP,1619802618
393,popondetta,-8.7537,148.2534,294.95,96,22,1.2,PG,1619802619
394,buraydah,26.326,43.975,306.15,19,0,3.09,SA,1619802619
395,trzcianka,53.0406,16.4563,281.48,90,100,1.79,PL,1619802619
396,oum hadjer,13.2954,19.6966,309.9,8,0,2.26,TD,1619802619
397,coquimbo,-29.9533,-71.3436,292.15,59,0,5.14,CL,1619802620
398,mayahi,13.9553,7.6712,311.04,3,8,2.93,NE,1619802620
399,willmar,45.1219,-95.0433,285.15,28,1,4.12,US,1619802456
400,voi,-3.3945,38.563,297.16,77,94,4.0,KE,1619802620
401,pochutla,15.7432,-96.4661,303.71,66,90,5.14,MX,1619802467
402,paidha,2.4167,30.9855,290.32,93,94,0.7,UG,1619802621
403,samarai,-10.6167,150.6667,299.65,78,47,3.55,PG,1619802621
404,kyzyl-suu,42.3414,78.0056,286.14,39,6,4.53,KG,1619802621
405,juchen,51.1,6.5,287.04,54,0,1.54,DE,1619802621
406,nouadhibou,20.931,-17.0347,297.15,69,0,8.75,MR,1619802622
407,vanimo,-2.6741,141.3028,298.85,88,82,2.75,PG,1619802622
408,katangli,51.7102,143.2326,272.43,93,100,3.51,RU,1619802622
409,goderich,43.7501,-81.7165,278.15,60,72,12.35,CA,1619802463
410,port lincoln,-34.7333,135.8667,292.65,39,100,4.67,AU,1619802623
411,sao filipe,14.8961,-24.4956,295.8,76,90,6.1,CV,1619802623
412,labuhan,-6.8844,112.2051,299.49,85,59,2.58,ID,1619802623
413,morant bay,17.8815,-76.4093,303.15,66,20,7.72,JM,1619802623
414,iralaya,15.0,-83.2333,301.15,83,75,4.63,HN,1619802624
415,olafsvik,64.8945,-23.7142,276.23,65,55,11.0,IS,1619802624
416,pisco,-13.7,-76.2167,294.15,78,0,5.66,PE,1619802624
417,havelock,34.8791,-76.9013,300.93,26,1,5.66,US,1619802442
418,deputatskiy,69.3,139.9,264.89,97,99,0.47,RU,1619802624
419,busdi,8.2761,125.2514,292.07,97,72,1.08,PH,1619802625
420,dickinson,29.4608,-95.0513,295.93,94,75,5.66,US,1619802625
421,nantucket,41.2835,-70.0995,288.15,63,75,10.8,US,1619802624
422,pitimbu,-7.4706,-34.8086,302.15,79,20,6.17,BR,1619802625
423,beroroha,-21.6667,45.1667,297.75,63,37,1.93,MG,1619802626
424,longyearbyen,78.2186,15.6401,267.15,63,40,5.66,SJ,1619802626
425,sungaipenuh,-2.0833,101.3833,291.88,92,100,1.7,ID,1619802626
426,provins,48.5833,3.1667,285.93,41,98,0.89,FR,1619802626
427,tateyama,34.9833,139.8667,288.15,82,0,0.45,JP,1619802445
428,nakhon phanom,17.3333,104.4167,297.0,79,37,1.13,TH,1619802627
429,visby,57.6409,18.296,281.48,49,0,2.06,SE,1619802627
430,bousse,12.6606,-1.8922,314.15,20,40,2.57,BF,1619802627
431,kajaani,64.2273,27.7285,275.15,44,0,4.63,FI,1619802628
432,taywarah,33.35,64.4167,282.74,67,67,3.88,AF,1619802628
433,clovis,36.8252,-119.7029,300.93,27,40,3.09,US,1619802628
434,port augusta,-32.5,137.7667,288.71,47,100,2.06,AU,1619802628
435,cunen,15.3375,-91.0269,298.15,60,40,2.25,GT,1619802629
436,madera,37.1666,-119.8343,300.37,28,80,0.45,US,1619802629
437,carballo,43.213,-8.691,286.48,78,64,2.24,ES,1619802629
438,fairbanks,64.8378,-147.7164,272.59,74,90,5.14,US,1619802478
439,shimoda,34.6667,138.95,290.37,73,0,7.83,JP,1619802629
440,gazojak,41.1875,61.4036,292.64,43,15,8.39,TM,1619802630
441,bari,41.1177,16.8512,298.15,36,0,4.12,IT,1619802630
442,kasempa,-13.4584,25.8338,292.42,86,100,1.73,ZM,1619802630
443,sao desiderio,-12.3633,-44.9733,304.16,39,91,2.78,BR,1619802630
444,mudigere,13.1333,75.6333,294.42,89,52,1.49,IN,1619802631
445,chagoda,59.164,35.3285,275.22,98,100,2.74,RU,1619802631
446,sola,-13.8833,167.55,300.43,74,99,8.56,VU,1619802631
447,nanhai,30.1282,111.7784,295.93,73,0,2.19,CN,1619802631
448,kattivakkam,13.2167,80.3167,303.71,79,40,3.6,IN,1619802632
449,ngunguru,-35.6167,174.5,286.48,95,98,1.34,NZ,1619802632
450,russell,32.3502,-85.1999,299.15,44,1,5.66,US,1619802632
451,epe,6.5841,3.9834,302.07,70,100,4.3,NG,1619802633
452,lesozavodsk,45.4794,133.4244,280.24,56,100,2.53,RU,1619802633
453,kidal,18.4411,1.4078,314.26,5,0,5.29,ML,1619802633
454,la libertad,-2.2333,-80.9,298.15,83,0,4.12,EC,1619802633
455,pontes e lacerda,-15.2261,-59.3353,302.08,39,15,1.91,BR,1619802634
456,hue,16.4667,107.6,298.15,94,40,0.51,VN,1619802634
457,surt,31.2089,16.5887,303.59,30,29,5.2,LY,1619802607
458,alyangula,-13.8483,136.4192,295.15,100,6,5.14,AU,1619802365
459,bemidji,47.4736,-94.8803,285.93,31,1,2.06,US,1619802634
460,marystown,47.1666,-55.1483,279.68,72,98,5.12,CA,1619802634
461,rexburg,43.826,-111.7897,293.71,32,1,2.93,US,1619802597
462,zacualpan,21.25,-105.1667,299.15,50,40,3.09,MX,1619802635
463,avera,33.194,-82.5271,299.82,44,1,4.63,US,1619802635
464,dalvik,65.9702,-18.5286,273.15,100,90,6.69,IS,1619802635
465,chake chake,-5.2459,39.7666,298.79,83,100,3.67,TZ,1619802636
466,henties bay,-22.116,14.2845,289.26,85,0,1.79,NA,1619802636
467,akyab,20.15,92.9,301.0,74,9,1.12,MM,1619802636
468,bethel,41.3712,-73.414,290.37,42,90,7.2,US,1619802623
469,vila franca do campo,37.7167,-25.4333,289.15,67,75,5.66,PT,1619802636
470,kayalpattinam,8.5667,78.1167,302.66,74,11,5.86,IN,1619802637
471,necochea,-38.5473,-58.7368,296.48,48,0,4.02,AR,1619802637
472,seydi,39.4816,62.9137,295.66,39,49,7.47,TM,1619802637
473,stephanskirchen,47.8595,12.1528,289.82,76,99,0.89,DE,1619802637
474,jalu,29.0331,21.5482,309.24,9,0,4.25,LY,1619802638
475,portland,45.5234,-122.6762,290.15,59,75,1.26,US,1619802425
476,safaga,26.7292,33.9365,307.15,17,0,3.64,EG,1619802638
477,severnoye,56.3491,78.3619,279.09,70,22,3.24,RU,1619802638
478,terrak,65.087,12.3715,277.15,56,40,5.14,NO,1619802639
479,xunchang,28.4543,104.715,295.56,69,100,1.62,CN,1619802639
480,brigantine,39.4101,-74.3646,293.71,32,75,11.83,US,1619802639
481,oistins,13.0667,-59.5333,303.15,51,20,8.75,BB,1619802639
482,yatou,37.15,122.3833,280.5,83,98,3.89,CN,1619802640
483,ust-tsilma,65.441,52.1498,275.29,62,85,2.25,RU,1619802640
484,puerto carreno,6.189,-67.4859,298.63,78,100,1.46,CO,1619802640
485,yumen,40.2833,97.2,292.73,9,64,3.68,CN,1619802640
486,farafangana,-22.8167,47.8333,296.63,88,4,2.79,MG,1619802641
487,kolvereid,64.8655,11.6047,278.15,60,40,3.6,NO,1619802641
488,omboue,-1.5746,9.2618,300.34,80,100,2.81,GA,1619802641
489,ukiah,39.1502,-123.2078,292.04,39,1,1.4,US,1619802641
490,dunedin,-45.8742,170.5036,282.04,71,34,1.79,NZ,1619802589
491,griffith,41.5284,-87.4237,283.71,61,40,8.75,US,1619802517
492,porto walter,-8.2686,-72.7439,302.91,42,17,2.1,BR,1619802642
493,gokak,16.1667,74.8333,302.06,57,24,5.14,IN,1619802642
494,jaroslaw,50.0162,22.6778,289.15,55,0,2.57,PL,1619802469
495,soller,39.7662,2.7152,293.15,73,20,4.12,ES,1619802642
496,bairiki,1.3292,172.9752,301.15,75,98,4.81,KI,1619802643
497,shingu,33.7333,135.9833,284.62,67,0,3.11,JP,1619802643
498,baykit,61.67,96.37,274.94,96,100,1.98,RU,1619802643
499,southbridge,42.0751,-72.0334,287.59,64,93,2.68,US,1619802644
500,acapulco,16.8634,-99.8901,301.15,78,75,5.66,MX,1619802644
501,sale,34.0389,-6.8166,290.93,77,75,2.06,MA,1619802644
502,ambon,-3.6954,128.1814,300.58,75,72,1.51,ID,1619802350
503,codrington,-38.2667,141.9667,287.21,47,78,4.03,AU,1619802644
504,koslan,63.4564,48.8989,274.4,94,99,2.87,RU,1619802645
505,laredo,27.5064,-99.5075,296.15,68,90,5.14,US,1619802366
506,komsomolskiy,40.4272,71.7189,298.15,23,84,7.2,UZ,1619802645
507,hazorasp,41.3194,61.0742,291.15,34,0,5.14,UZ,1619802645
508,pahrump,36.2083,-115.9839,302.04,12,6,1.82,US,1619802530
509,palmer,42.1584,-72.3287,287.15,58,75,8.23,US,1619802556
510,neftcala,39.3742,49.2472,288.94,83,46,3.3,AZ,1619802646
511,whyalla,-33.0333,137.5833,288.15,47,100,2.06,AU,1619802646
512,barcelona,41.3888,2.159,290.15,82,75,5.66,ES,1619802588
513,marsabit,2.3284,37.9899,295.37,57,90,3.83,KE,1619802646
514,beian,63.6559,9.5683,279.15,65,40,5.14,NO,1619802647
515,ryotsu,38.0833,138.4333,285.01,85,61,6.43,JP,1619802647
516,moerai,-22.4333,-151.3333,298.09,86,95,5.85,PF,1619802647
517,aquiraz,-3.9014,-38.3911,303.15,70,40,6.69,BR,1619802647
518,kirakira,-10.4544,161.9205,298.88,87,100,3.21,SB,1619802648
519,chiredzi,-21.05,31.6667,298.03,46,65,2.77,ZW,1619802648
520,la romana,18.4273,-68.9728,303.15,70,40,3.09,DO,1619802478
521,maravatio,19.9,-100.45,298.71,33,87,1.34,MX,1619802648
522,gawler,-34.6,138.7333,293.15,34,100,1.79,AU,1619802648
523,sribne,50.6638,32.9187,286.47,87,98,3.4,UA,1619802649
524,kafue,-15.7691,28.1814,298.15,65,75,3.6,ZM,1619802649
525,vostok,46.4856,135.8833,273.8,83,1,1.01,RU,1619802649
526,champerico,14.3,-91.9167,302.15,65,40,2.06,GT,1619802649
527,williams lake,52.1415,-122.1445,285.93,50,75,1.75,CA,1619802650
528,ocampo,21.65,-101.5,300.93,50,48,6.14,MX,1619802650
529,iskateley,67.6803,53.1512,271.63,90,96,1.17,RU,1619802650
530,la ronge,55.1001,-105.2842,277.15,75,100,5.66,CA,1619802650
531,kalmar,56.6616,16.3616,281.48,31,1,3.09,SE,1619802651
532,turukhansk,65.8167,87.9833,275.65,77,100,7.25,RU,1619802651
533,berbera,10.4396,45.0143,302.46,73,54,3.23,SO,1619802651
534,ketchikan,55.3422,-131.6461,280.15,93,90,4.12,US,1619802408
535,byron bay,-28.65,153.6167,291.15,94,75,2.57,AU,1619802355
536,omsukchan,62.5333,155.8,269.63,89,100,1.91,RU,1619802652
537,vilhena,-12.7406,-60.1458,299.15,65,0,4.63,BR,1619802581
538,sinnamary,5.3833,-52.95,297.31,94,100,2.49,GF,1619802652
539,la asuncion,11.0333,-63.8628,299.82,64,83,1.19,VE,1619802652
540,anqing,30.5092,117.0506,291.85,82,19,1.05,CN,1619802652
541,conakry,9.538,-13.6773,302.15,65,0,7.2,GN,1619802653
542,charters towers,-20.1,146.2667,290.33,89,10,3.07,AU,1619802653
543,san andres,12.5847,-81.7006,303.15,66,40,4.12,CO,1619802653
544,tikrit,34.6071,43.6782,304.5,17,16,4.65,IQ,1619802396
545,paita,-5.0892,-81.1144,300.15,65,0,6.69,PE,1619802631
546,dubasari,47.2631,29.1608,291.15,68,0,3.6,MD,1619802654
547,auki,-8.7676,160.7034,297.96,86,95,1.5,SB,1619802654
548,jiangyou,31.7667,104.7167,293.72,62,1,2.02,CN,1619802654
549,taos,36.4072,-105.5731,291.48,20,1,2.57,US,1619802626
550,bubaque,11.2833,-15.8333,299.25,70,53,9.59,GW,1619802655
551,arcata,40.8665,-124.0828,287.59,76,1,3.09,US,1619802615
552,nurota,40.5614,65.6886,294.15,52,60,6.17,UZ,1619802655
553,north bend,43.4065,-124.2243,289.26,72,1,1.54,US,1619802655
554,kutum,14.2,24.6667,303.37,12,9,3.56,SD,1619802655
555,port talbot,51.5924,-3.7802,282.59,72,61,2.77,GB,1619802597
556,siderno,38.2779,16.302,293.71,88,20,2.06,IT,1619802656
557,kantang,7.4054,99.5156,298.2,90,100,1.31,TH,1619802656
558,coxim,-18.5067,-54.76,306.07,19,100,1.85,BR,1619802656
